slug,name,country,region,piste_km,apres_score,crowd_score,infra_score,hut_score,park_score,beginner_score,advanced_score,lat,lon,image_url,openskimap_url,skimap_url,piste_map_url,official_url,skipass_url,piste_km_total,piste_km_easy,piste_km_intermediate,piste_km_advanced,runs_count_total,lifts_count_total,elevation_min_m,elevation_max_m,vertical_m,wikipedia_url,notes,source,last_checked
11er-neustift-neder,11er Neustift/Neder,Österreich,Tyrol,10.7,0.5,0.5,0.5,0.5,0.5,0.5,0.5,47.10114900000006,11.3253289297508,,https://openskimap.org/?obj=14e44f003d9b6e9b2b4b0558cb95b247b4008b3c,https://skimap.org/skiareas/view/2543,https://skimap.org/skiareas/view/2543,https://www.stubai.at/skigebiete/elferlifte/,,10.7,0.1,4.9,5.7,51,5,979.7,2033.9,1055,,,openskistats.org + api.openskimap.org + wikidata.org,2026-01-29
3-zinnen-dolomites-dobbiaco-san-candido-braies-sesto-alta-pusteria,3 Zinnen Dolomites (Dobbiaco - San Candido - Braies - Sesto - Alta Pusteria),Italien,Bolzano/Bozen,58.8,0.5,0.5,0.5,0.5,0.5,0.5,0.5,46.68807873387098,12.37380646854839,,https://openskimap.org/?obj=cece2d5f54131184f301a127d3f1e0f747031367,https://skimap.org/skiareas/view/2067,https://skimap.org/skiareas/view/2067,https://www.dreizinnen.com/,,58.8,20.8,18.7,5.9,126,21,1134.7,2220.9,1089.6,,,openskistats.org + api.openskimap.org + wikidata.org,2026-01-29
4-vallees-verbier-la-tzoumaz-nendaz-veysonnaz-thyon,4 Vallées – Verbier/La Tzoumaz/Nendaz/Veysonnaz/Thyon,Schweiz,Valais,165.5,0.5,0.5,0.5,0.5,0.5,0.5,0.5,46.12005235,7.264975510000001,,https://openskimap.org/?obj=0ed72c1a44d748a815d1efcd54caacf169610f05,https://skimap.org/skiareas/view/989,https://skimap.org/skiareas/view/989,http://www.4vallees.ch/,,165.5,61.2,79.2,24.1,315,79,904.7,3299.3,1944.4,,,openskistats.org + api.openskimap.org + wikidata.org,2026-01-29
abondance,Abondance,Frankreich,Haute-Savoie,9.7,0.5,0.5,0.5,0.5,0.5,0.5,0.5,46.28266613660247,6.727229647292763,,https://openskimap.org/?obj=d3d69f021189f84fe11396cd2078f905ebd0beb9,https://skimap.org/skiareas/view/4389,https://skimap.org/skiareas/view/4389,,,9.7,6.3,3,0.3,19,9,919.9,1689.1,769.2,,,openskistats.org + api.openskimap.org + wikidata.org,2026-01-29
adelboden-lenk,Adelboden - Lenk,Schweiz,Bern,83.3,0.5,0.5,0.5,0.5,0.5,0.5,0.5,46.46278593684211,7.516812273684212,,https://openskimap.org/?obj=fdbe9df85d02479357a5a789328b43cb5b6aef1c,https://skimap.org/skiareas/view/1002,https://skimap.org/skiareas/view/1002,https://www.adelboden-lenk.ch/de/Erlebnis/Skiregion/Adelboden-Lenk,,83.3,44.1,32.5,6.7,132,21,1262.7,2193,930.3,,,openskistats.org + api.openskimap.org + wikidata.org,2026-01-29
adelboden-tschentenalp,Adelboden - TschentenAlp,Schweiz,Bern,6.7,0.5,0.5,0.5,0.5,0.5,0.5,0.5,46.49989312500001,7.552475374999999,,https://openskimap.org/?obj=c3556d945fdc212c3e94a934a6fc4fe3ece0f5ec,https://skimap.org/skiareas/view/17213,https://skimap.org/skiareas/view/17213,https://www.tschentenalp.ch,,6.7,1.7,4.8,0.2,7,6,1401.1,1955.7,554.6,,,openskistats.org + api.openskimap.org + wikidata.org,2026-01-29
adelharz-und-breitensteinlifte-kranzegg-am-grunten,Adelharz- und Breitensteinlifte (Kranzegg am Grünten),Deutschland,Bavaria,7.6,0.5,0.5,0.5,0.5,0.5,0.5,0.5,47.583357680523655,10.3326416015625,,https://openskimap.org/?obj=34aefc36ef2dff03ffbc04baaddf0814e7e29ada,https://skimap.org/skiareas/view/17768,https://skimap.org/skiareas/view/17768,https://www.adelharzlifte.de/,,7.6,7.6,,,8,4,973.7,1315,343.9,,,openskistats.org + api.openskimap.org + wikidata.org,2026-01-29
aela-maloja,Aela (Maloja),Schweiz,Graubunden,3.1,0.5,0.5,0.5,0.5,0.5,0.5,0.5,46.397655,9.707386130769232,,https://openskimap.org/?obj=8117b8963f3c59c5d572d311e132218ff723c805,https://skimap.org/skiareas/view/14677,https://skimap.org/skiareas/view/14677,https://www.bregaglia.ch/de/alpinski,,3.1,,1.9,1.2,4,3,1816.2,2133.2,312.4,,,openskistats.org + api.openskimap.org + wikidata.org,2026-01-29
aeschiallmend,Aeschiallmend,Schweiz,Bern,6.8,0.5,0.5,0.5,0.5,0.5,0.5,0.5,46.646531611111115,7.7331602722222215,,https://openskimap.org/?obj=92f3b5384b3fa291c6ab4072334e2f340c576c4d,https://skimap.org/skiareas/view/12874,https://skimap.org/skiareas/view/12874,https://www.skilift-aeschiried.ch/,,6.8,3.2,3.2,0.5,13,4,913.9,1380.9,468.8,,,openskistats.org + api.openskimap.org + wikidata.org,2026-01-29
aichelberglifte-karlstift,Aichelberglifte Karlstift,Österreich,Lower Austria,4.4,0.5,0.5,0.5,0.5,0.5,0.5,0.5,48.594472123076926,14.746542569230769,,https://openskimap.org/?obj=c87ef8964bdbd00c5603d31098cb6521130acb40,https://skimap.org/skiareas/view/14455,https://skimap.org/skiareas/view/14455,,,4.4,2.9,1.3,0.1,9,2,888,1045.5,158.2,,,openskistats.org + api.openskimap.org + wikidata.org,2026-01-29
aillon-margeriaz,Aillon-Margériaz,Frankreich,Savoie,20.2,0.5,0.5,0.5,0.5,0.5,0.5,0.5,45.637918313785526,6.050839327133478,,https://openskimap.org/?obj=df9a26b589d512af30d78fa6ad55e745a3a677e3,,,,,20.2,14.8,3.4,1.5,37,10,1385.8,1832.5,449.5,,,openskistats.org + api.openskimap.org + wikidata.org,2026-01-29
airolo-pescium,Airolo Pesciüm,Schweiz,Ticino,20.5,0.5,0.5,0.5,0.5,0.5,0.5,0.5,46.51042173634308,8.612196155304739,,https://openskimap.org/?obj=67a84872331001ee2d7615a03eb9d424c66e6006,https://skimap.org/skiareas/view/3169,https://skimap.org/skiareas/view/3169,https://airolo.ch/,,20.5,0.9,8.8,10.7,31,8,1178.9,2252.8,1074.7,,,openskistats.org + api.openskimap.org + wikidata.org,2026-01-29
ala-di-stura,Ala di Stura,Italien,Turin,5.3,0.5,0.5,0.5,0.5,0.5,0.5,0.5,45.303694923118286,7.312162826881721,,https://openskimap.org/?obj=a0714d5b9bf5ac6e4b14641aa0a3aee630ceaed7,https://skimap.org/skiareas/view/5096,https://skimap.org/skiareas/view/5096,,,5.3,1.7,1,2.6,11,4,1023.9,1733.8,709.9,,,openskistats.org + api.openskimap.org + wikidata.org,2026-01-29
albiez-montrond,Albiez-Montrond,Frankreich,Savoie,17.2,0.5,0.5,0.5,0.5,0.5,0.5,0.5,45.21047807793697,6.34898526590258,,https://openskimap.org/?obj=78779b860e6b70a1d8e64ddb7cb458cedd26d005,https://skimap.org/skiareas/view/743,https://skimap.org/skiareas/view/743,,,17.2,10.1,6.1,0.9,21,8,1490.3,2011.5,521.4,,,openskistats.org + api.openskimap.org + wikidata.org,2026-01-29
aletsch-arena,Aletsch Arena,Schweiz,Valais,83.8,0.5,0.5,0.5,0.5,0.5,0.5,0.5,46.39998389397589,8.07504631566265,,https://openskimap.org/?obj=d264be37a4fd40a4de858be7fee0a5c077cb1068,https://skimap.org/skiareas/view/990,https://skimap.org/skiareas/view/990,https://www.aletscharena.ch/,,83.8,40,36.5,7,172,42,1057.4,2867.2,1811.8,,,openskistats.org + api.openskimap.org + wikidata.org,2026-01-29
alpe-cermis,Alpe Cermis,Italien,Trento,24.5,0.5,0.5,0.5,0.5,0.5,0.5,0.5,46.263627725000006,11.48420171,,https://openskimap.org/?obj=611dc30b6944dd59c79479c20d8f463ce6451e55,https://skimap.org/skiareas/view/2062,https://skimap.org/skiareas/view/2062,https://www.alpecermis.it/,,24.5,11,10.4,3.1,34,8,859.4,2248,1388.6,,,openskistats.org + api.openskimap.org + wikidata.org,2026-01-29
alpe-cimbra,Alpe Cimbra,Italien,Trento,56,0.5,0.5,0.5,0.5,0.5,0.5,0.5,45.90399322977097,11.224956125954195,,https://openskimap.org/?obj=ef817c42b82422721b05028c6d58ce10f8a2190c,https://skimap.org/skiareas/view/4227,https://skimap.org/skiareas/view/4227,https://www.alpecimbra.it/de/skigebiet-alpe-cimbra/lavarone-folgaria-skigebiet/46-0.html,,56,31.7,20.8,3.4,90,47,1176.8,1811.3,635.3,,,openskistats.org + api.openskimap.org + wikidata.org,2026-01-29
alpe-devero,Alpe Devero,Italien,Verbano-Cusio-Ossola,5,0.5,0.5,0.5,0.5,0.5,0.5,0.5,46.30848653776225,8.254339244055943,,https://openskimap.org/?obj=57efd51e547ce58c39dd45053fd694c74096df90,https://skimap.org/skiareas/view/17527,https://skimap.org/skiareas/view/17527,,,5,0.9,3.8,0.3,10,5,1639.7,2200.4,560.7,,,openskistats.org + api.openskimap.org + wikidata.org,2026-01-29
alpe-teglio,Alpe Teglio,Italien,Sondrio,7.8,0.5,0.5,0.5,0.5,0.5,0.5,0.5,46.199940331578944,10.045337468421053,,https://openskimap.org/?obj=f534d751975c08efee1b98fe379351cab1f1abd2,https://skimap.org/skiareas/view/4427,https://skimap.org/skiareas/view/4427,https://alpeteglio.com/,,7.8,4.1,3.6,,14,3,1659.1,2481.6,822.5,,,openskistats.org + api.openskimap.org + wikidata.org,2026-01-29
alpe-d-huez-grand-domaine,Alpe d'Huez Grand Domaine,Frankreich,Isère,161.7,0.5,0.5,0.5,0.5,0.5,0.5,0.5,45.11623337631581,6.085985232894736,,https://openskimap.org/?obj=721dd142d0af653027c7569e1bd0799586bdefa1,https://skimap.org/skiareas/view/729,https://skimap.org/skiareas/view/729,https://www.alpedhuez.com/,,161.7,88.5,44.3,27.3,311,84,1123.5,3305.9,2190.7,,,openskistats.org + api.openskimap.org + wikidata.org,2026-01-29
alpe-del-nevegal,Alpe del Nevegal,Italien,Belluno,10.9,0.5,0.5,0.5,0.5,0.5,0.5,0.5,46.0838755962963,12.286405540740747,,https://openskimap.org/?obj=77090eda1d4d0aa577e1d378f1f3490ab3815deb,https://skimap.org/skiareas/view/4401,https://skimap.org/skiareas/view/4401,https://www.alpedelnevegal.it,,10.9,3.7,5.9,1.3,16,6,1046.1,1662.3,616.2,,,openskistats.org + api.openskimap.org + wikidata.org,2026-01-29
alta-badia,Alta Badia,Italien,Bolzano/Bozen,133.6,0.5,0.5,0.5,0.5,0.5,0.5,0.5,46.56402517098769,11.89053985308642,,https://openskimap.org/?obj=41ca531357e0d2a532b8ab94e3e9fe74ddbe88c4,https://skimap.org/skiareas/view/2053,https://skimap.org/skiareas/view/2053,https://www.altabadia.org/,,133.6,77.1,33.9,4.6,221,61,1340.7,2525.6,1184.9,,,openskistats.org + api.openskimap.org + wikidata.org,2026-01-29
altglashutten,Altglashütten,Deutschland,Baden-Württemberg,3.1,0.5,0.5,0.5,0.5,0.5,0.5,0.5,47.853806916572125,8.108614349365325,,https://openskimap.org/?obj=ab485c318cd0de0412cfc8540939a1ea49e94e42,https://skimap.org/skiareas/view/4575,https://skimap.org/skiareas/view/4575,,,3.1,1,0.9,1.1,5,2,989.7,1141,151.3,,,openskistats.org + api.openskimap.org + wikidata.org,2026-01-29
amden-arvenbuel,Amden Arvenbüel,Schweiz,Saint Gallen,6.9,0.5,0.5,0.5,0.5,0.5,0.5,0.5,47.14804457851854,9.177859122962962,,https://openskimap.org/?obj=766a9546cbf8003f6293803277f6b9940490a50c,,,https://www.amden-weesen.ch/winter/skigebiet-amden,,6.9,3.6,3.3,,10,3,1158,1365.4,208.2,,,openskistats.org + api.openskimap.org + wikidata.org,2026-01-29
amden-mattstock,Amden Mattstock,Schweiz,Saint Gallen,5.9,0.5,0.5,0.5,0.5,0.5,0.5,0.5,47.16267556879434,9.14716473664302,,https://openskimap.org/?obj=d5f1881a856237ba5306a46b6b9de657b73cdc3f,https://skimap.org/skiareas/view/3725,https://skimap.org/skiareas/view/3725,https://www.amden-weesen.ch/winter/skigebiet-amden,,5.9,1.4,4.5,,7,2,930.9,1637.5,706.6,,,openskistats.org + api.openskimap.org + wikidata.org,2026-01-29
ancelle,Ancelle,Frankreich,Hautes-Alpes,22.9,0.5,0.5,0.5,0.5,0.5,0.5,0.5,44.61006148245614,6.209634471929824,,https://openskimap.org/?obj=2bb6a71b243972bb44faef0f818e1d6a4979cacc,https://skimap.org/skiareas/view/672,https://skimap.org/skiareas/view/672,https://www.ancelleski.fr,,22.9,15.3,6.7,0.9,56,14,1322.8,1798.3,479.2,,,openskistats.org + api.openskimap.org + wikidata.org,2026-01-29
ankogel-mallnitz,Ankogel Mallnitz,Österreich,Carinthia,11.8,0.5,0.5,0.5,0.5,0.5,0.5,0.5,47.02701410714287,13.198975214285715,,https://openskimap.org/?obj=2bd25bec309a7e7ed0278937a9068904ab842bfc,https://skimap.org/skiareas/view/2806,https://skimap.org/skiareas/view/2806,https://www.ankogel-ski.at/,,11.8,1.3,7.4,3.1,21,6,1271,2629.7,1358.9,,,openskistats.org + api.openskimap.org + wikidata.org,2026-01-29
antagnod,Antagnod,Italien,Valle D'Aosta,11.3,0.5,0.5,0.5,0.5,0.5,0.5,0.5,45.82219840000001,7.683758616666667,,https://openskimap.org/?obj=ccff22ffefafc4b905e28fe6e6029f479fe08a6a,https://skimap.org/skiareas/view/4198,https://skimap.org/skiareas/view/4198,https://www.visitmonterosa.com/,,11.3,7.1,4,0.1,15,4,1726,2307.9,586,,,openskistats.org + api.openskimap.org + wikidata.org,2026-01-29
anzere,Anzère,Schweiz,Valais,38.3,0.5,0.5,0.5,0.5,0.5,0.5,0.5,46.31327014736841,7.402407884210526,,https://openskimap.org/?obj=23c484a02dad8207dee185a68f77c03e314a395d,https://skimap.org/skiareas/view/998,https://skimap.org/skiareas/view/998,https://www.anzere.ch,,38.3,13.5,16.2,7.1,164,14,1515.7,2411.3,967.4,,,openskistats.org + api.openskimap.org + wikidata.org,2026-01-29
appenzell,Appenzell,Schweiz,Appenzell Innerrhoden,5.5,0.5,0.5,0.5,0.5,0.5,0.5,0.5,47.32098563905579,9.401820007725316,,https://openskimap.org/?obj=f3788c639179ad3885d1fb1e90834e428a967c97,https://skimap.org/skiareas/view/15168,https://skimap.org/skiareas/view/15168,https://www.skilift-sollegg.ch,,5.5,2,3,0.5,5,1,811.6,1163.9,352.3,,,openskistats.org + api.openskimap.org + wikidata.org,2026-01-29
aprica,Aprica,Italien,Sondrio,38.5,0.5,0.5,0.5,0.5,0.5,0.5,0.5,46.13748567407408,10.160818651851852,,https://openskimap.org/?obj=3bd1726f524a9082e1272817d2fccffaa05843ef,https://skimap.org/skiareas/view/2054,https://skimap.org/skiareas/view/2054,https://www.apricaonline.com/index.php,,38.5,18.7,13,6.2,64,15,1157,2251.5,1097.9,,,openskistats.org + api.openskimap.org + wikidata.org,2026-01-29
arabba,Arabba,Italien,Belluno,48.5,0.5,0.5,0.5,0.5,0.5,0.5,0.5,46.49160742089552,11.85897598955224,,https://openskimap.org/?obj=96be13b1dd69f96a46471628f93fb9efdcb8fa4b,https://skimap.org/skiareas/view/4218,https://skimap.org/skiareas/view/4218,http://www.arabba.it,,48.5,13.4,14.3,5.9,82,19,1607.2,2533.3,926.3,,,openskistats.org + api.openskimap.org + wikidata.org,2026-01-29
area-sciisitica-febbio-rescadore,Area Sciisitica Febbio - Rescadore,Italien,Reggio Nell'Emilia,9.5,0.5,0.5,0.5,0.5,0.5,0.5,0.5,44.29180165517242,10.418995193103452,,https://openskimap.org/?obj=858c98a7b702f08d90bc82564cb6a5238b4c1058,https://skimap.org/skiareas/view/4452,https://skimap.org/skiareas/view/4452,https://www.infofebbio.com/,,9.5,3.8,2.7,3,22,3,1148.8,2062.8,919.1,,,openskistats.org + api.openskimap.org + wikidata.org,2026-01-29
area-sciistica-abetone,Area Sciistica Abetone,Italien,Pistoia,39.5,0.5,0.5,0.5,0.5,0.5,0.5,0.5,44.13530928636364,10.649192652272724,,https://openskimap.org/?obj=ffc04590f75f3e275d90108cc0984829ee429dda,https://skimap.org/skiareas/view/2281,https://skimap.org/skiareas/view/2281,https://multipassabetone.it/,,39.5,23.4,15,1.1,90,18,1258.4,1888.6,638.3,,,openskistats.org + api.openskimap.org + wikidata.org,2026-01-29
area-sciistica-cerreto-laghi,Area Sciistica Cerreto Laghi,Italien,Massa-Carrara,8.3,0.5,0.5,0.5,0.5,0.5,0.5,0.5,44.29395920555557,10.242555111111109,,https://openskimap.org/?obj=73d868ce988c8c34a737447a43a0cad9d1d24af4,https://skimap.org/skiareas/view/4451,https://skimap.org/skiareas/view/4451,https://cerretolaghi.info/,,8.3,0.2,7.6,0.5,14,3,1349.5,1843.9,494.5,,,openskistats.org + api.openskimap.org + wikidata.org,2026-01-29
area-sciistica-pian-del-poggio-monte-chiappo,Area Sciistica Pian del Poggio Monte Chiappo,Italien,Alessandria,3.2,0.5,0.5,0.5,0.5,0.5,0.5,0.5,44.68901409062502,9.205198521875,,https://openskimap.org/?obj=dcd06faead3f5bf46441fcee8b91411573b24888,https://skimap.org/skiareas/view/5116,https://skimap.org/skiareas/view/5116,https://www.seggioviapiandelpoggio.it/,,3.2,2.5,0.7,,3,1,1333.5,1685,351.8,,,openskistats.org + api.openskimap.org + wikidata.org,2026-01-29
area-sciistica-piane-di-mocogno,Area Sciistica Piane di Mocogno,Italien,Modena,4,0.5,0.5,0.5,0.5,0.5,0.5,0.5,44.28708386833334,10.662483641666674,,https://openskimap.org/?obj=5117408d5b63f4793110881bdb87fe04aec87cd7,https://skimap.org/skiareas/view/4472,https://skimap.org/skiareas/view/4472,https://www.pianedimocogno.it/,,4,0.6,0.8,1.2,10,6,1236.2,1605.4,371.2,,,openskistats.org + api.openskimap.org + wikidata.org,2026-01-29
area-sciistica-pratospilla,Area Sciistica Pratospilla,Italien,Massa-Carrara,5.6,0.5,0.5,0.5,0.5,0.5,0.5,0.5,44.35389695,10.099760216666667,,https://openskimap.org/?obj=528cfbd0e80a15ba3391d34fc961500e2cbb9293,https://skimap.org/skiareas/view/4449,https://skimap.org/skiareas/view/4449,https://www.pratospilla.pr.it,,5.6,1.2,4.1,0.2,11,3,1368,1681.9,327.5,,,openskistats.org + api.openskimap.org + wikidata.org,2026-01-29
area-sciistica-sant-annapelago,Area Sciistica Sant'Annapelago,Italien,Modena,4,0.5,0.5,0.5,0.5,0.5,0.5,0.5,44.18189407857143,10.537561160714287,,https://openskimap.org/?obj=34eafa820be39bb71fb53d7762067f414bc10c61,https://skimap.org/skiareas/view/4453,https://skimap.org/skiareas/view/4453,,,4,1.9,2,,6,3,1096.8,1386.9,290.6,,,openskistats.org + api.openskimap.org + wikidata.org,2026-01-29
area-sciistica-schia-monte-caio,Area Sciistica Schia Monte Caio,Italien,Parma,12.4,0.5,0.5,0.5,0.5,0.5,0.5,0.5,44.4717567388889,10.169089952777778,,https://openskimap.org/?obj=f99eb5a0d8cf76dad7d2d7833c2af5fc314508d9,https://skimap.org/skiareas/view/4464,https://skimap.org/skiareas/view/4464,https://www.schiamontecaio.it,,12.4,2,8.3,2.1,14,4,1198.7,1487.7,314.3,,,openskistats.org + api.openskimap.org + wikidata.org,2026-01-29
area-sciistica-ventasso-laghi,Area Sciistica Ventasso Laghi,Italien,Reggio Nell'Emilia,4.8,0.5,0.5,0.5,0.5,0.5,0.5,0.5,44.38452521153845,10.274280076923075,,https://openskimap.org/?obj=f80e4d4940f3f6fb77d0adaa799dd7ff295f0787,https://skimap.org/skiareas/view/5117,https://skimap.org/skiareas/view/5117,https://stazione-sciistica-ventasso-laghi.webnode.it/,,4.8,0.2,4.4,0.2,11,2,1313.9,1502.3,190,,,openskistats.org + api.openskimap.org + wikidata.org,2026-01-29
area-scistica-zum-zeri,Area Scistica Zum Zeri,Italien,Massa-Carrara,6.1,0.5,0.5,0.5,0.5,0.5,0.5,0.5,44.386247182352925,9.747305117647057,,https://openskimap.org/?obj=22f19384d10ea054315383be570531c3bb429997,https://skimap.org/skiareas/view/4450,https://skimap.org/skiareas/view/4450,https://www.zumzeri.net/,,6.1,1.3,4.8,,10,3,1344.4,1567.1,236,,,openskistats.org + api.openskimap.org + wikidata.org,2026-01-29
argentera,Argentera,Italien,Cuneo,15.9,0.5,0.5,0.5,0.5,0.5,0.5,0.5,44.38082671294134,6.952949217560177,,https://openskimap.org/?obj=2efc8d2bd391f45727850bda54d8c8ae4acb6f12,https://skimap.org/skiareas/view/4446,https://skimap.org/skiareas/view/4446,,,15.9,0.5,11.5,3.8,18,4,1629.9,2513.5,883.6,,,openskistats.org + api.openskimap.org + wikidata.org,2026-01-29
arolla,Arolla,Schweiz,Valais,15.8,0.5,0.5,0.5,0.5,0.5,0.5,0.5,46.02284615249999,7.4725139800000004,,https://openskimap.org/?obj=5a706bbb2360489535ce7ca853764fae32dd424c,https://skimap.org/skiareas/view/3782,https://skimap.org/skiareas/view/3782,https://www.arolla.com/,,15.8,12.1,2.1,1.5,20,6,1982.2,2879.9,897.7,,,openskistats.org + api.openskimap.org + wikidata.org,2026-01-29
arosa-lenzerheide,Arosa Lenzerheide,Schweiz,Graubunden,153.2,0.5,0.5,0.5,0.5,0.5,0.5,0.5,46.74990624652977,9.569898657521778,,https://openskimap.org/?obj=4ae9b0cba5454d6f0921bf413c33a267f1d63cca,https://skimap.org/skiareas/view/1010,https://skimap.org/skiareas/view/1010,http://arosalenzerheide.ch,,153.2,90.8,47.3,15.1,262,47,1239.6,2855.1,1615.9,,,openskistats.org + api.openskimap.org + wikidata.org,2026-01-29
artesina,Artesina,Italien,Cuneo,35.4,0.5,0.5,0.5,0.5,0.5,0.5,0.5,44.2434048409836,7.750436559016395,,https://openskimap.org/?obj=b397f0f5eee9f8ab94490ebf1df40b8ebe640c9a,,,https://www.frabosaski.it/,,35.4,12.1,19.1,3.5,50,13,787.3,2081.5,1294.2,,,openskistats.org + api.openskimap.org + wikidata.org,2026-01-29
areches-beaufort,Arêches Beaufort,Frankreich,Savoie,35,0.5,0.5,0.5,0.5,0.5,0.5,0.5,45.661623142500005,6.5441332725,,https://openskimap.org/?obj=d19b617dc3a4c9a07b0f8b3360f7f5a20d384a48,https://skimap.org/skiareas/view/744,https://skimap.org/skiareas/view/744,https://www.areches-beaufort.com,,35,21.6,10.8,2.5,53,15,1021.8,2318.7,1300.7,,,openskistats.org + api.openskimap.org + wikidata.org,2026-01-29
atzmannig,Atzmännig,Schweiz,Saint Gallen,7.1,0.5,0.5,0.5,0.5,0.5,0.5,0.5,47.28197100978261,9.000209588043477,,https://openskimap.org/?obj=ed1dc3eea539c61f394bd02c508be3f2367859ab,https://skimap.org/skiareas/view/3828,https://skimap.org/skiareas/view/3828,,,7.1,2.8,4.3,,10,5,825.2,1193.7,368.5,,,openskistats.org + api.openskimap.org + wikidata.org,2026-01-29
auron,Auron,Frankreich,Alpes-Maritimes,61.2,0.5,0.5,0.5,0.5,0.5,0.5,0.5,44.22494470000002,6.917473911764706,,https://openskimap.org/?obj=f23d597954a98b529cf904c5f7d0522008afb131,,,,,61.2,33.7,20,7.5,63,20,1597.8,2445.4,847.6,,,openskistats.org + api.openskimap.org + wikidata.org,2026-01-29
auronzo,Auronzo,Italien,Belluno,7.2,0.5,0.5,0.5,0.5,0.5,0.5,0.5,46.55307114957385,12.410327125115051,,https://openskimap.org/?obj=56ff01bce581c2bc09f30de77bed5df39878c501,https://skimap.org/skiareas/view/4221,https://skimap.org/skiareas/view/4221,https://www.auronzomisurina.it/,,7.2,0.4,6,0.8,9,3,858.6,1579.9,721.3,,,openskistats.org + api.openskimap.org + wikidata.org,2026-01-29
aussois,Aussois,Frankreich,Savoie,30,0.5,0.5,0.5,0.5,0.5,0.5,0.5,45.246784844827594,6.737974765517243,,https://openskimap.org/?obj=a0ffbaaaf9807c58da7fecab4df2617502f1d584,https://skimap.org/skiareas/view/745,https://skimap.org/skiareas/view/745,https://www.aussois.com,,30,15,9.2,5.1,50,10,1531.9,2680.4,1161.6,,,openskistats.org + api.openskimap.org + wikidata.org,2026-01-29
autrans,Autrans,Frankreich,Isère,4,0.5,0.5,0.5,0.5,0.5,0.5,0.5,45.2088653242751,5.566230920525,,https://openskimap.org/?obj=587083ed85af457ce2b42663b8e33233681ccabc,https://skimap.org/skiareas/view/715,https://skimap.org/skiareas/view/715,https://autrans-meaudre.com/,,4,0.8,1.8,1.4,4,2,1208.3,1611.7,410,,,openskistats.org + api.openskimap.org + wikidata.org,2026-01-29
autrans-grand-domaine-la-sure,Autrans - Grand domaine la Sure,Frankreich,Isère,11.1,0.5,0.5,0.5,0.5,0.5,0.5,0.5,45.22908289166668,5.585493041666667,,https://openskimap.org/?obj=a34a3a12ad26355ac688d5920a28d063e9af7757,https://skimap.org/skiareas/view/715,https://skimap.org/skiareas/view/715,https://autrans-meaudre.com/,,11.1,4.1,4.7,2.3,26,6,1261.4,1604.7,345.8,,,openskistats.org + api.openskimap.org + wikidata.org,2026-01-29
avers,Avers,Schweiz,Graubunden,6.4,0.5,0.5,0.5,0.5,0.5,0.5,0.5,46.43609838196114,9.55352881473514,,https://openskimap.org/?obj=c9999d9a9dfeeba34753b83f30dc139a82f3c735,https://skimap.org/skiareas/view/4398,https://skimap.org/skiareas/view/4398,http://www.skilifte-avers.ch/,,6.4,6.4,,,6,2,1981.7,2535.2,553.5,,,openskistats.org + api.openskimap.org + wikidata.org,2026-01-29
avoriaz,Avoriaz,Schweiz,Valais,85.6,0.5,0.5,0.5,0.5,0.5,0.5,0.5,46.188790535483896,6.796541369892477,,https://openskimap.org/?obj=7cac2b19d023f887e458c354be9caf833b6aed6d,https://skimap.org/skiareas/view/988,https://skimap.org/skiareas/view/988,https://www.avoriaz.com/en/discover/discover/ski-area-and-maps/,,85.6,63.3,13.4,5.2,189,41,1168.2,2249.5,1081.3,,,openskistats.org + api.openskimap.org + wikidata.org,2026-01-29
axalp,Axalp,Schweiz,Bern,12.5,0.5,0.5,0.5,0.5,0.5,0.5,0.5,46.715825622014904,8.041487755223885,,https://openskimap.org/?obj=e0683a5fb859192c48db792baa445ef24b238036,https://skimap.org/skiareas/view/3719,https://skimap.org/skiareas/view/3719,https://www.axalpsportbahnen.ch/,,12.5,8.1,1,3.3,15,4,1422.9,1936.6,523.1,,,openskistats.org + api.openskimap.org + wikidata.org,2026-01-29
axamer-lizum-muttereralm,Axamer Lizum - Muttereralm,Österreich,Tyrol,37.9,0.5,0.5,0.5,0.5,0.5,0.5,0.5,47.19665296791723,11.308047122344263,,https://openskimap.org/?obj=4d065e674fc26a1c1142f9449bee9528e741468b,https://skimap.org/skiareas/view/2540,https://skimap.org/skiareas/view/2540,https://www.axamer-lizum.at/,,37.9,10.6,22.1,4.9,51,17,892.3,2333.8,1441.5,,,openskistats.org + api.openskimap.org + wikidata.org,2026-01-29
ballon-d-alsace,Ballon d'Alsace,Frankreich,Territoire de Belfort,8,0.5,0.5,0.5,0.5,0.5,0.5,0.5,47.80693558404258,6.852440427659575,,https://openskimap.org/?obj=d39336da0c51e94780c04757b4430dda81cd4e79,https://skimap.org/skiareas/view/882,https://skimap.org/skiareas/view/882,https://www.ballondalsace.fr/,,8,3.6,1.5,2.6,27,10,816.1,1150.4,349.6,,,openskistats.org + api.openskimap.org + wikidata.org,2026-01-29
balme-vallorcine,Balme - Vallorcine,Frankreich,Haute-Savoie,29.7,0.5,0.5,0.5,0.5,0.5,0.5,0.5,46.02213989444445,6.951780705555557,,https://openskimap.org/?obj=778cf1cb898c18902972765463f338721dac88b3,https://skimap.org/skiareas/view/840,https://skimap.org/skiareas/view/840,https://en.chamonix.com/activities/winter/skiing-in-chamonix-mont-blanc-valley/list-of-ski-areas/ski-area-balme-vallorcine,,29.7,13.6,12.7,0.9,36,9,1262.1,2253.5,992.3,,,openskistats.org + api.openskimap.org + wikidata.org,2026-01-29
bannalp,Bannalp,Schweiz,Nidwalden,2.2,0.5,0.5,0.5,0.5,0.5,0.5,0.5,46.872437938333334,8.439245050000002,,https://openskimap.org/?obj=e89d7aa7c9d0c48e2aebd902b6e39e3adc82d78f,https://skimap.org/skiareas/view/15595,https://skimap.org/skiareas/view/15595,https://www.bannalp.ch/,,2.2,2,0.2,,6,6,1660.7,1792.3,131.6,,,openskistats.org + api.openskimap.org + wikidata.org,2026-01-29
bardonecchia,Bardonecchia,Italien,Turin,35.4,0.5,0.5,0.5,0.5,0.5,0.5,0.5,45.05515617333333,6.696951688000002,,https://openskimap.org/?obj=dfc5c773c999f3cf6df73a599e3d647a0da2c9e7,https://skimap.org/skiareas/view/2055,https://skimap.org/skiareas/view/2055,https://www.bardonecchiaski.com,,35.4,17.1,16.7,1.6,49,15,1291.7,2384.9,1093.2,,,openskistats.org + api.openskimap.org + wikidata.org,2026-01-29
bardonecchia-jafferau,Bardonecchia - Jafferau,Italien,Turin,18.9,0.5,0.5,0.5,0.5,0.5,0.5,0.5,45.086585025999995,6.745276767999997,,https://openskimap.org/?obj=225c73ba1ae78397e9a6b9b3c2d48cfa942261ab,,,https://www.bardonecchiaski.com/,,18.9,0.7,18.2,,27,5,1351.6,2716,1366.9,,,openskistats.org + api.openskimap.org + wikidata.org,2026-01-29
baulmes,Baulmes,Schweiz,Vaud,2.7,0.5,0.5,0.5,0.5,0.5,0.5,0.5,46.780622377907,6.475237500581397,,https://openskimap.org/?obj=0a9bab151b564eb5a974d784eb414daf3072fe34,https://skimap.org/skiareas/view/13470,https://skimap.org/skiareas/view/13470,,,2.7,1.3,0.7,0.6,3,1,1210.3,1423.8,215.6,,,openskistats.org + api.openskimap.org + wikidata.org,2026-01-29
belalp,Belalp,Schweiz,Valais,39.9,0.5,0.5,0.5,0.5,0.5,0.5,0.5,46.377926512041384,7.976081260771398,,https://openskimap.org/?obj=e9c0a197353bef2c6ed47d85c268582cae8ad8ea,https://skimap.org/skiareas/view/18041,https://skimap.org/skiareas/view/18041,https://www.belalp.ch/,,39.9,19.9,9.2,10.5,97,12,1331.5,3100.5,1771.1,,,openskistats.org + api.openskimap.org + wikidata.org,2026-01-29
belchen,Belchen,Deutschland,Baden-Württemberg,5.1,0.5,0.5,0.5,0.5,0.5,0.5,0.5,47.821075683157886,7.841178946315787,,https://openskimap.org/?obj=e1c991de5e8316772bbabb7422cda10f2bf329ec,https://skimap.org/skiareas/view/4578,https://skimap.org/skiareas/view/4578,,,5.1,3.8,1.3,,11,1,1092.2,1355.1,335.3,,,openskistats.org + api.openskimap.org + wikidata.org,2026-01-29
bellefontaine,Bellefontaine,Frankreich,Jura,3.3,0.5,0.5,0.5,0.5,0.5,0.5,0.5,46.555311828571426,6.074354385714286,,https://openskimap.org/?obj=61f896d0f8f1fa986ba3a2fd6b97c40b6d5c4f9a,https://skimap.org/skiareas/view/911,https://skimap.org/skiareas/view/911,http://www.bellefontaine-hautjura.fr/ski-haut-jura-alpin-fond/ski-alpin.html,,3.3,2.8,0.5,,6,5,1031.9,1257.3,225.4,,,openskistats.org + api.openskimap.org + wikidata.org,2026-01-29
bellwald-2,Bellwald,Schweiz,Valais,11.9,0.5,0.5,0.5,0.5,0.5,0.5,0.5,46.43998299766453,8.164891312526533,,https://openskimap.org/?obj=48f49671caa110fdb9c9cc7bd29b42ff16e43a1e,https://skimap.org/skiareas/view/5677,https://skimap.org/skiareas/view/5677,https://www.bellwald.ch/,,11.9,5.8,5.2,0.9,29,4,1621.5,2557.9,936.9,,,openskistats.org + api.openskimap.org + wikidata.org,2026-01-29
bellwald,Bellwald,Schweiz,Valais,16.1,0.5,0.5,0.5,0.5,0.5,0.5,0.5,46.440998608571434,8.16459565142857,,https://openskimap.org/?obj=ac5afec1d13e41114951a6c189ec3477620f3d0f,https://skimap.org/skiareas/view/5677,https://skimap.org/skiareas/view/5677,https://www.bellwald.ch/,,16.1,9,5.9,1.3,56,4,1621.5,2557.9,936.9,,,openskistats.org + api.openskimap.org + wikidata.org,2026-01-29
belvedere-col-rodella-passo-pordoi,Belvedere - Col Rodella - Passo Pordoi,Italien,Trento,42.8,0.5,0.5,0.5,0.5,0.5,0.5,0.5,46.48461010666668,11.782057165000001,,https://openskimap.org/?obj=2853d36e04595667478f6d0046350678bd5470c5,https://skimap.org/skiareas/view/2061,https://skimap.org/skiareas/view/2061,https://www.valdifassalift.it/,,42.8,3.2,28.6,2.2,77,23,1443.3,2421,977.7,,,openskistats.org + api.openskimap.org + wikidata.org,2026-01-29
bergbahn-weissensee,Bergbahn Weissensee,Österreich,Carinthia,4.9,0.5,0.5,0.5,0.5,0.5,0.5,0.5,46.70512252272727,13.300976354545456,,https://openskimap.org/?obj=9c52e39dc101c4bba85c1260711d063b1e701447,https://skimap.org/skiareas/view/13512,https://skimap.org/skiareas/view/13512,https://www.weissensee.com/de/Winter-World/Sun-Ski-World/Skigebiet-Weissensee,,4.9,3.3,1.4,,8,5,931.3,1363.9,408.3,,,openskistats.org + api.openskimap.org + wikidata.org,2026-01-29
bergbahnen-werfenweng,Bergbahnen Werfenweng,Österreich,Salzburg,21.6,0.5,0.5,0.5,0.5,0.5,0.5,0.5,47.46020584392095,13.282119908814597,,https://openskimap.org/?obj=2fede7b59c44a1e3b56e9de3001562b9da83b757,https://skimap.org/skiareas/view/12314,https://skimap.org/skiareas/view/12314,https://www.bergbahnen-werfenweng.com/,,21.6,12.1,8.8,0.7,30,9,897.3,1824.9,929.9,,,openskistats.org + api.openskimap.org + wikidata.org,2026-01-29
bergeralm,Bergeralm,Österreich,Tyrol,16.8,0.5,0.5,0.5,0.5,0.5,0.5,0.5,47.07438857727272,11.456353827272729,,https://openskimap.org/?obj=fe328a6ab0ed5457ebffed8bf67e112693a52e01,https://skimap.org/skiareas/view/2551,https://skimap.org/skiareas/view/2551,https://www.bergeralm.net/,,16.8,7,7.6,1.8,30,7,1065.8,2174.9,1109.1,,,openskistats.org + api.openskimap.org + wikidata.org,2026-01-29
bergun-bravuogn,Bergün/Bravuogn,Schweiz,Graubunden,12.5,0.5,0.5,0.5,0.5,0.5,0.5,0.5,46.62443972506263,9.764727596899144,,https://openskimap.org/?obj=57b40dff085a069d2e9c9a974647fe22cbaee1a6,https://skimap.org/skiareas/view/4396,https://skimap.org/skiareas/view/4396,https://www.berguen-filisur.ch/,,12.5,3.7,8.3,0.6,19,7,1366.6,2556.9,1190.3,,,openskistats.org + api.openskimap.org + wikidata.org,2026-01-29
bernex,Bernex,Frankreich,Haute-Savoie,15.7,0.5,0.5,0.5,0.5,0.5,0.5,0.5,46.350737928785605,6.703285490236523,,https://openskimap.org/?obj=19b6e308caa6766b21cb00e4fb40a82c4ee1f95b,https://skimap.org/skiareas/view/797,https://skimap.org/skiareas/view/797,,,15.7,7.4,6.6,1.4,46,10,995.3,1869.7,875.5,,,openskistats.org + api.openskimap.org + wikidata.org,2026-01-29
berwang-bichlbach-zugspitz-arena,Berwang - Bichlbach (Zugspitz Arena),Österreich,Tyrol,17,0.5,0.5,0.5,0.5,0.5,0.5,0.5,47.41159400483029,10.747375488281243,,https://openskimap.org/?obj=6520fde4643dba824360f5f75edb51e8048eaa88,https://skimap.org/skiareas/view/17163,https://skimap.org/skiareas/view/17163,https://www.berwang.tirol/,,17,11.5,4.4,1.2,41,14,1057.3,1704.5,647.2,,,openskistats.org + api.openskimap.org + wikidata.org,2026-01-29
biancoia,Biancoia,Italien,Vicenza,3.8,0.5,0.5,0.5,0.5,0.5,0.5,0.5,45.824615012643676,11.632494382758624,,https://openskimap.org/?obj=c2365b27d8430a6dab7a3c0bf0da11da2e3c5dc6,https://skimap.org/skiareas/view/13783,https://skimap.org/skiareas/view/13783,,,3.8,3.8,,,7,3,1098.7,1231.8,133.1,,,openskistats.org + api.openskimap.org + wikidata.org,2026-01-29
biberegg,Biberegg,Schweiz,Schwyz,5.1,0.5,0.5,0.5,0.5,0.5,0.5,0.5,47.0881909878788,8.681970509090906,,https://openskimap.org/?obj=fc7f023413af35e2d31ff15d5eeb29a2c518f984,https://skimap.org/skiareas/view/17910,https://skimap.org/skiareas/view/17910,,,5.1,2.2,1.4,1.4,3,1,954.1,1321.4,367.3,,,openskistats.org + api.openskimap.org + wikidata.org,2026-01-29
biberwier-marienberg,Biberwier - Marienberg,Österreich,Tyrol,9.6,0.5,0.5,0.5,0.5,0.5,0.5,0.5,47.35562576792457,10.894511486792442,,https://openskimap.org/?obj=8f63ee82162e69c39d10e6a73b73d005b4028fcd,https://skimap.org/skiareas/view/17160,https://skimap.org/skiareas/view/17160,https://www.bergbahnen-langes.at/,,9.6,7,1.8,0.8,25,6,1013,1822.5,809.5,,,openskistats.org + api.openskimap.org + wikidata.org,2026-01-29
biel-kinzig,Biel - Kinzig,Schweiz,Uri,7.3,0.5,0.5,0.5,0.5,0.5,0.5,0.5,46.901886870238116,8.709762432539684,,https://openskimap.org/?obj=2e9f9eacafa4e8547af611b73b19941325210b17,https://skimap.org/skiareas/view/3724,https://skimap.org/skiareas/view/3724,https://www.biel-kinzigag.ch/,,7.3,2.4,4.9,,15,9,1622.5,1940.1,317.6,,,openskistats.org + api.openskimap.org + wikidata.org,2026-01-29
bielmonte,Bielmonte,Italien,Biella,18.8,0.5,0.5,0.5,0.5,0.5,0.5,0.5,45.669332410526316,8.082970563157897,,https://openskimap.org/?obj=1a01a340b840a58c515e5dbd7fec6e35e42f1ae8,https://skimap.org/skiareas/view/4491,https://skimap.org/skiareas/view/4491,https://www.bielmonteneve.it/,,18.8,3.5,13.1,2.1,37,8,1216.8,1613.2,400.3,,,openskistats.org + api.openskimap.org + wikidata.org,2026-01-29
bivio,Bivio,Schweiz,Graubunden,14.8,0.5,0.5,0.5,0.5,0.5,0.5,0.5,46.4636896817307,9.644693856456042,,https://openskimap.org/?obj=ae2e22251543887f21ba619b5816511ec9a4081e,https://skimap.org/skiareas/view/4395,https://skimap.org/skiareas/view/4395,,,14.8,5.3,8,1.4,13,4,1766.7,2541.8,771.4,,,openskistats.org + api.openskimap.org + wikidata.org,2026-01-29
blasiberg-wiesensteig,Bläsiberg Wiesensteig,Deutschland,Baden-Württemberg,2.8,0.5,0.5,0.5,0.5,0.5,0.5,0.5,48.57275250884959,9.61895897610619,,https://openskimap.org/?obj=f32f8bfae6a4b7e4ef80e435b98586b7deb1f6ef,https://skimap.org/skiareas/view/13565,https://skimap.org/skiareas/view/13565,https://www.skilifte-wiesensteig.de/,,2.8,1.7,0.5,0.5,11,3,612.3,755.8,140.6,,,openskistats.org + api.openskimap.org + wikidata.org,2026-01-29
bolsterlang-allgauer-hornerbahnen,Bolsterlang (Allgäuer Hörnerbahnen),Deutschland,Bavaria,12.4,0.5,0.5,0.5,0.5,0.5,0.5,0.5,47.460129797741,10.226898193359398,,https://openskimap.org/?obj=5309658358adefb2e082f00c49440c14aa972ae6,https://skimap.org/skiareas/view/2151,https://skimap.org/skiareas/view/2151,https://www.hoernerbahn.de,,12.4,5.9,5.8,0.4,23,6,885.9,1663,777.2,,,openskistats.org + api.openskimap.org + wikidata.org,2026-01-29
bonneval-sur-arc,Bonneval-sur-Arc,Frankreich,Savoie,20.6,0.5,0.5,0.5,0.5,0.5,0.5,0.5,45.36133512845217,7.056881593320505,,https://openskimap.org/?obj=76d441ab94356152a7e13a3a67001259a0d3d3c5,https://skimap.org/skiareas/view/747,https://skimap.org/skiareas/view/747,https://www.bonneval-sur-arc.com/,,20.6,13.1,4.2,2.2,49,11,1794.1,2948.4,1154.3,,,openskistats.org + api.openskimap.org + wikidata.org,2026-01-29
bormio-ski,Bormio Ski,Italien,Sondrio,31.6,0.5,0.5,0.5,0.5,0.5,0.5,0.5,46.450060068750005,10.388084693750002,,https://openskimap.org/?obj=d4daebca40119e46e0a6f0a873bf3fcbb4585fff,https://skimap.org/skiareas/view/2057,https://skimap.org/skiareas/view/2057,https://www.bormioski.eu/,,31.6,6,22.6,1.7,61,13,1198.4,3018.7,1836.1,,,openskistats.org + api.openskimap.org + wikidata.org,2026-01-29
borno,Borno,Italien,Brescia,11,0.5,0.5,0.5,0.5,0.5,0.5,0.5,45.92337350723267,10.176499567610062,,https://openskimap.org/?obj=dfcdb4604fa1b2df7a54fa37d5e3a3dac691097e,https://skimap.org/skiareas/view/4424,https://skimap.org/skiareas/view/4424,https://www.bornoturismo.it/inverno-sci/,,11,2.3,5.9,2.7,10,4,1000.5,1663.5,667.6,,,openskistats.org + api.openskimap.org + wikidata.org,2026-01-29
bosco-gurin-grossalp,Bosco Gurin – Grossalp,Schweiz,Ticino,17.2,0.5,0.5,0.5,0.5,0.5,0.5,0.5,46.31694161875001,8.468222268750003,,https://openskimap.org/?obj=32ce6e2927d2c1eefeb8c95a01053836ab27e745,https://skimap.org/skiareas/view/3683,https://skimap.org/skiareas/view/3683,https://www.bosco-gurin.ch,,17.2,4.2,9,3.9,22,5,1482.1,2326,846.6,,,openskistats.org + api.openskimap.org + wikidata.org,2026-01-29
brambruesch,Brambrüesch,Schweiz,Graubunden,9.9,0.5,0.5,0.5,0.5,0.5,0.5,0.5,46.82021727853883,9.510425359360733,,https://openskimap.org/?obj=dcc09d80b8e54996b2b0992ae12be842cab4be40,https://skimap.org/skiareas/view/3801,https://skimap.org/skiareas/view/3801,https://www.churbergbahnen.ch/,,9.9,2.3,5.2,2.4,7,5,1183.8,2171.2,987.7,,,openskistats.org + api.openskimap.org + wikidata.org,2026-01-29
brandnertal-brand-burserberg,Brandnertal – Brand/​Bürserberg,Österreich,Vorarlberg,44.8,0.5,0.5,0.5,0.5,0.5,0.5,0.5,47.11979886309524,9.729942573809522,,https://openskimap.org/?obj=b006b322d1e68bc5d77d0758fb19d16d76e04a37,https://skimap.org/skiareas/view/2698,https://skimap.org/skiareas/view/2698,https://www.vorarlberg-alpenregion.at/en/brandnertal/holiday-in-winter-in-brandertal.html,,44.8,24.9,19.9,,70,12,888.5,1971.4,1082.9,,,openskistats.org + api.openskimap.org + wikidata.org,2026-01-29
brauneck,Brauneck,Deutschland,Bavaria,23.5,0.5,0.5,0.5,0.5,0.5,0.5,0.5,47.66441924166667,11.534699875000001,,https://openskimap.org/?obj=4f29aa0694d65e2fdda688ea60209f7ad9f18729,https://skimap.org/skiareas/view/4191,https://skimap.org/skiareas/view/4191,https://www.brauneck-bergbahn.de/,,23.5,4.2,14.7,4.6,57,17,715.6,1594,878.4,,,openskistats.org + api.openskimap.org + wikidata.org,2026-01-29
braunwald,Braunwald,Schweiz,Glarus,15.8,0.5,0.5,0.5,0.5,0.5,0.5,0.5,46.95074138286257,8.992013374764596,,https://openskimap.org/?obj=e18255e7d2167bde2ed8fb9099d3b4e3dfd3f1a3,https://skimap.org/skiareas/view/1023,https://skimap.org/skiareas/view/1023,https://www.braunwald.ch/,,15.8,5.2,9.7,0.9,26,23,1233.7,1900.3,666.6,,,openskistats.org + api.openskimap.org + wikidata.org,2026-01-29
brentonico,Brentonico,Italien,Trento,21.7,0.5,0.5,0.5,0.5,0.5,0.5,0.5,45.78183931052632,10.925607626315788,,https://openskimap.org/?obj=d65fe4b57a5fba26b0631bd1c39af529e7d3390c,https://skimap.org/skiareas/view/4416,https://skimap.org/skiareas/view/4416,https://www.brentonicoski.com,,21.7,12.7,8,1,26,11,1189.5,1580,393.8,,,openskistats.org + api.openskimap.org + wikidata.org,2026-01-29
brigels-waltensburg-andiast-brigels-waltenburg-andiast-breil-vuorz-andiast,"Brigels-Waltensburg-Andiast, Brigels-Waltenburg-Andiast, Breil-Vuorz-Andiast",Schweiz,Graubunden,30.9,0.5,0.5,0.5,0.5,0.5,0.5,0.5,46.79025920189101,9.076800497296817,,https://openskimap.org/?obj=2826e74d5f33a0bd943b7353dcda7e1419c36ace,https://skimap.org/skiareas/view/1018,https://skimap.org/skiareas/view/1018,https://www.brigels-bergbahnen.ch,,30.9,6.5,20.7,3.8,46,12,1102.1,2412.3,1310.2,,,openskistats.org + api.openskimap.org + wikidata.org,2026-01-29
brixen-plose-plose-di-bressanone-brixen-plose-plose-di-bressanone,"Brixen Plose - Plose di Bressanone, Brixen Plose, Plose di Bressanone",Italien,Bolzano/Bozen,22.5,0.5,0.5,0.5,0.5,0.5,0.5,0.5,46.68741096590909,11.708786206818187,,https://openskimap.org/?obj=d4f1bfc5d309ed6749a9be5e82ae90a32574f634,https://skimap.org/skiareas/view/3151,https://skimap.org/skiareas/view/3151,https://www.plose.org/,,22.5,12.2,4.6,5.7,39,8,1038.2,2502.3,1464.9,,,openskistats.org + api.openskimap.org + wikidata.org,2026-01-29
brunnalm-st-jakob,Brunnalm / St. Jakob,Österreich,Tyrol,22.2,0.5,0.5,0.5,0.5,0.5,0.5,0.5,46.89775465,12.361437375000003,,https://openskimap.org/?obj=5bd0b3ffabae93d4ba6218b85f65af3d1acdf242,https://skimap.org/skiareas/view/637,https://skimap.org/skiareas/view/637,https://www.stjakob-ski.at/,,22.2,6.4,10.5,5.3,40,7,1386.6,2682.1,1295.5,,,openskistats.org + api.openskimap.org + wikidata.org,2026-01-29
brunni-haggenegg,Brunni-Haggenegg,Schweiz,Schwyz,8.6,0.5,0.5,0.5,0.5,0.5,0.5,0.5,47.04790575903614,8.696629009638551,,https://openskimap.org/?obj=e2c5381ad2ac12e1225e345bf583a7817c846649,https://skimap.org/skiareas/view/1004,https://skimap.org/skiareas/view/1004,,,8.6,4.1,4.6,,11,1,1239.1,1499.7,409.9,,,openskistats.org + api.openskimap.org + wikidata.org,2026-01-29
brunni-holzegg-rotenflue,Brunni-Holzegg-Rotenflue,Schweiz,Schwyz,13,0.5,0.5,0.5,0.5,0.5,0.5,0.5,47.031900908602154,8.702312889247311,,https://openskimap.org/?obj=dbe163d62708ebfff35821bea576a5e99dccfc6a,https://skimap.org/skiareas/view/1004,https://skimap.org/skiareas/view/1004,,,13,7.7,5,0.2,20,7,1051.7,1565.1,513.4,,,openskistats.org + api.openskimap.org + wikidata.org,2026-01-29
brusson,Brusson,Italien,Valle D'Aosta,9.6,0.5,0.5,0.5,0.5,0.5,0.5,0.5,45.76378377777778,7.759215883333336,,https://openskimap.org/?obj=ea7c9b72f2b29c49b21f677576bd908aceac5b03,https://skimap.org/skiareas/view/4199,https://skimap.org/skiareas/view/4199,https://www.visitmonterosa.com/,,9.6,2.8,6.9,,17,4,1734.4,2234.2,502.8,,,openskistats.org + api.openskimap.org + wikidata.org,2026-01-29
brevent-flegere-chamonix,Brévent/Flégère (Chamonix),Frankreich,Haute-Savoie,42.3,0.5,0.5,0.5,0.5,0.5,0.5,0.5,45.94788852941177,6.8697755588235285,,https://openskimap.org/?obj=8432e3c536835ef8a690f63b62060a7993bfd964,https://skimap.org/skiareas/view/799,https://skimap.org/skiareas/view/799,https://en.chamonix.com/activities/winter/skiing-in-chamonix-mont-blanc-valley/list-of-ski-areas/domaine-skiable-brevent-flegere,,42.3,15.6,12.1,13.9,72,17,1046.6,2485.8,1458.3,,,openskistats.org + api.openskimap.org + wikidata.org,2026-01-29
brulisau,Brülisau,Schweiz,Appenzell Innerrhoden,2.8,0.5,0.5,0.5,0.5,0.5,0.5,0.5,47.29473361640631,9.451080481250006,,https://openskimap.org/?obj=b45fcb7e4f8a2096af3a39a562140e55074046bf,https://skimap.org/skiareas/view/17913,https://skimap.org/skiareas/view/17913,https://skiliftbruelisau.ch,,2.8,,2.8,,5,1,905.1,1066.7,161.6,,,openskistats.org + api.openskimap.org + wikidata.org,2026-01-29
buchenberg,Buchenberg,Deutschland,Bavaria,5.2,0.5,0.5,0.5,0.5,0.5,0.5,0.5,47.614585878648036,10.805672073364242,,https://openskimap.org/?obj=639b348ab5173e8543f29fd552624d3736167820,https://skimap.org/skiareas/view/14490,https://skimap.org/skiareas/view/14490,https://www.buchenbergbahn.de/winter.html,,5.2,3.9,1.3,,7,1,806.4,1143.3,336.9,,,openskistats.org + api.openskimap.org + wikidata.org,2026-01-29
buchensteinwand-pillersee,Buchensteinwand (Pillersee),Österreich,Tyrol,18.5,0.5,0.5,0.5,0.5,0.5,0.5,0.5,47.48627438888889,12.587502183333333,,https://openskimap.org/?obj=ec1f0ead2546a3742becd52d1e9b677c58509996,https://skimap.org/skiareas/view/3116,https://skimap.org/skiareas/view/3116,https://www.bergbahn-pillersee.com/,,18.5,6.8,8.9,2.5,25,8,853.8,1451.5,597.8,,,openskistats.org + api.openskimap.org + wikidata.org,2026-01-29
buchserberg,Buchserberg,Schweiz,Saint Gallen,2,0.5,0.5,0.5,0.5,0.5,0.5,0.5,47.1467190352941,9.430600192436982,,https://openskimap.org/?obj=f00a132ae5a568ccef0514ef0599b52a21bd5a0a,,,,,2,2,,,4,1,1377.3,1483.2,106.1,,,openskistats.org + api.openskimap.org + wikidata.org,2026-01-29
buffaure-ciampac,Buffaure - Ciampac,Italien,Trento,25.8,0.5,0.5,0.5,0.5,0.5,0.5,0.5,46.4399076,11.748498652941176,,https://openskimap.org/?obj=a92bdf9c9959ecbfd436556e0c71a630759be88e,https://skimap.org/skiareas/view/4224,https://skimap.org/skiareas/view/4224,,,25.8,2.5,16.7,6.6,39,13,1332.3,2437.7,1105.4,,,openskistats.org + api.openskimap.org + wikidata.org,2026-01-29
bugnenets-savagnieres,Bugnenets-Savagnières,Schweiz,Neuchatel,15.8,0.5,0.5,0.5,0.5,0.5,0.5,0.5,47.12251200887576,7.016692710355026,,https://openskimap.org/?obj=06b6a1bf1760e0705bf964f0a5d4e410de20f279,https://skimap.org/skiareas/view/5412,https://skimap.org/skiareas/view/5412,https://www.chasseral-snow.ch/,,15.8,6.2,8.6,1.1,17,10,1079.2,1447.8,376.6,,,openskistats.org + api.openskimap.org + wikidata.org,2026-01-29
bumbach,Bumbach,Schweiz,Bern,5,0.5,0.5,0.5,0.5,0.5,0.5,0.5,46.80495744652776,7.886035338888888,,https://openskimap.org/?obj=dd96ad5d5d027fdc26aa2a86716dfbb71a813cd1,https://skimap.org/skiareas/view/5453,https://skimap.org/skiareas/view/5453,https://bumbach.jimdo.com/,,5,2.2,2.8,,5,2,916.4,1355.3,438.9,,,openskistats.org + api.openskimap.org + wikidata.org,2026-01-29
buron,Buron,Deutschland,Bavaria,5.6,0.5,0.5,0.5,0.5,0.5,0.5,0.5,47.60145466000001,10.4543452,,https://openskimap.org/?obj=2b0e42b79b95b1b61a2a406c5dd01013cfc61d5f,https://skimap.org/skiareas/view/2765,https://skimap.org/skiareas/view/2765,https://www.buron-skilifte.de/,,5.6,0.1,5,0.5,6,2,895.3,1433.9,538.6,,,openskistats.org + api.openskimap.org + wikidata.org,2026-01-29
bussang-larcenaire,Bussang Larcenaire,Frankreich,Vosges,3.2,0.5,0.5,0.5,0.5,0.5,0.5,0.5,47.90064666666668,6.856996549999999,,https://openskimap.org/?obj=c3779da58e20c25d24bb00e1f4b93194a8503b53,https://skimap.org/skiareas/view/884,https://skimap.org/skiareas/view/884,https://www.larcenaire.fr,,3.2,2.6,0.4,0.2,13,5,826.3,945.8,119.8,,,openskistats.org + api.openskimap.org + wikidata.org,2026-01-29
bodele,Bödele,Österreich,Vorarlberg,21.2,0.5,0.5,0.5,0.5,0.5,0.5,0.5,47.4109486342857,9.81967783714286,,https://openskimap.org/?obj=ad2faceffa44fe6c1a3149d02c89759a7145af52,https://skimap.org/skiareas/view/2697,https://skimap.org/skiareas/view/2697,,,21.2,10.6,9.8,0.8,53,12,813.6,1438.6,740.4,,,openskistats.org + api.openskimap.org + wikidata.org,2026-01-29
burchen-torbel,Bürchen - Törbel,Schweiz,Valais,18.2,0.5,0.5,0.5,0.5,0.5,0.5,0.5,46.254329471359235,7.82414892451456,,https://openskimap.org/?obj=e876d1a921e6e04fed57331a03f9f5298a20e069,,,,,18.2,7.2,6.5,4.5,36,8,1508,2508.3,1000.3,,,openskistats.org + api.openskimap.org + wikidata.org,2026-01-29
caldirola,Caldirola,Italien,Alessandria,4.3,0.5,0.5,0.5,0.5,0.5,0.5,0.5,44.71740394898992,9.145358406565652,,https://openskimap.org/?obj=70a53f98c72e7076084008d5099fad2743b711ef,https://skimap.org/skiareas/view/5115,https://skimap.org/skiareas/view/5115,,,4.3,3.5,0.8,,5,1,1090.5,1437.5,351.2,,,openskistats.org + api.openskimap.org + wikidata.org,2026-01-29
campiglio-dolomiti-di-brenta,Campiglio Dolomiti di Brenta,Italien,Trento,58.3,0.5,0.5,0.5,0.5,0.5,0.5,0.5,46.23657645714286,10.836468948571435,,https://openskimap.org/?obj=7f3dde2cf70f25d4f6dab9271332f2942bbf5543,https://skimap.org/skiareas/view/2073,https://skimap.org/skiareas/view/2073,https://www.funiviecampiglio.it/,,58.3,28.3,22,7.3,91,23,1507.5,2506.7,1002.9,,,openskistats.org + api.openskimap.org + wikidata.org,2026-01-29
campo-blenio,Campo (Blenio),Schweiz,Ticino,2.6,0.5,0.5,0.5,0.5,0.5,0.5,0.5,46.56053173150686,8.932112324657536,,https://openskimap.org/?obj=7e2ace7b0273273421506891b4fd4b93ea07873a,https://skimap.org/skiareas/view/13875,https://skimap.org/skiareas/view/13875,https://campoblenio.ch/,,2.6,1.6,1,,4,4,1204.6,1578.2,373.6,,,openskistats.org + api.openskimap.org + wikidata.org,2026-01-29
carezza,Carezza,Italien,Bolzano/Bozen,27.3,0.5,0.5,0.5,0.5,0.5,0.5,0.5,46.42587181084338,11.585812420481929,,https://openskimap.org/?obj=7ed532f09ad353d121841f56c60990bde6d70741,https://skimap.org/skiareas/view/4239,https://skimap.org/skiareas/view/4239,https://carezza.it/,,27.3,16.9,8,2.5,62,15,1182.6,2321.6,1142,,,openskistats.org + api.openskimap.org + wikidata.org,2026-01-29
cari,Cari,Schweiz,Ticino,11.1,0.5,0.5,0.5,0.5,0.5,0.5,0.5,46.50122450750246,8.82150701952724,,https://openskimap.org/?obj=e118091f23fd306fba3b2188da3ac7c14874efe5,https://skimap.org/skiareas/view/3705,https://skimap.org/skiareas/view/3705,http://www.cari.ch/,,11.1,6.1,2.4,2.7,24,4,1651.2,2279.6,658.8,,,openskistats.org + api.openskimap.org + wikidata.org,2026-01-29
cerkno,Cerkno,Slowenien,Gorizia,9.7,0.5,0.5,0.5,0.5,0.5,0.5,0.5,46.16642990032363,14.057428706472484,,https://openskimap.org/?obj=ff2da4e8c1dbf2fab47a88e780a431d7f6965108,https://skimap.org/skiareas/view/1963,https://skimap.org/skiareas/view/1963,https://www.cerkno-resort.si/,,9.7,5,3.7,1,21,7,945.7,1289.8,345.1,,,openskistats.org + api.openskimap.org + wikidata.org,2026-01-29
chabanon,Chabanon,Frankreich,Alpes-de-Haute-Provence,26.3,0.5,0.5,0.5,0.5,0.5,0.5,0.5,44.34190659338524,6.291452197146564,,https://openskimap.org/?obj=22c54e1e92de27ad2b47090f9b33564d0cbe8edc,https://skimap.org/skiareas/view/662,https://skimap.org/skiareas/view/662,https://www.chabanon-selonnet.com/,,26.3,15.9,8.9,1.5,43,12,1534,2027.7,502,,,openskistats.org + api.openskimap.org + wikidata.org,2026-01-29
chaillol-chalhol,"Chaillol, Chalhòl",Frankreich,Hautes-Alpes,11,0.5,0.5,0.5,0.5,0.5,0.5,0.5,44.68968609696971,6.161727007575755,,https://openskimap.org/?obj=5fa47ccbd1d702e3a8c21ef47b92d9fa38d46e0e,https://skimap.org/skiareas/view/675,https://skimap.org/skiareas/view/675,,,11,6.5,4.5,,23,9,1456.5,1929.1,475.3,,,openskistats.org + api.openskimap.org + wikidata.org,2026-01-29
chalet-reynard-mont-ventoux,Chalet Reynard (Mont Ventoux),Frankreich,Vaucluse,5.4,0.5,0.5,0.5,0.5,0.5,0.5,0.5,44.152497872076594,5.31909942626953,,https://openskimap.org/?obj=46ffaa43c3f59e429d47e31c701333782305c3f0,https://skimap.org/skiareas/view/841,https://skimap.org/skiareas/view/841,,,5.4,4.5,0.9,,9,2,1434.1,1623.9,193.4,,,openskistats.org + api.openskimap.org + wikidata.org,2026-01-29
chamois,Chamois,Italien,Valle D'Aosta,10,0.5,0.5,0.5,0.5,0.5,0.5,0.5,45.844743733962275,7.627588822641509,,https://openskimap.org/?obj=7c7b2d1bb3932350901d2806b3fd32bc119707d7,https://skimap.org/skiareas/view/2479,https://skimap.org/skiareas/view/2479,https://www.skilife.ski/en/chamois/,,10,1.9,8.1,,16,7,1815.4,2494.7,680.6,,,openskistats.org + api.openskimap.org + wikidata.org,2026-01-29
champex-lac,Champex-Lac,Schweiz,Valais,11.3,0.5,0.5,0.5,0.5,0.5,0.5,0.5,46.02623679583335,7.103960016666665,,https://openskimap.org/?obj=7e5b5268dc5d7b5505fc25b0d1556916904c0636,https://skimap.org/skiareas/view/2387,https://skimap.org/skiareas/view/2387,http://www.telechampex.ch/,,11.3,7.8,2.5,1,20,4,1467.7,2194,726.4,,,openskistats.org + api.openskimap.org + wikidata.org,2026-01-29
champorcher,Champorcher,Italien,Valle D'Aosta,14.7,0.5,0.5,0.5,0.5,0.5,0.5,0.5,45.61350404761905,7.5812712047619035,,https://openskimap.org/?obj=b45b5e60381d646cbcd771ac7eb66fc64dff6adb,https://skimap.org/skiareas/view/4196,https://skimap.org/skiareas/view/4196,http://www.monterosa-ski.com/,,14.7,0.9,9.9,3.9,34,7,1443.5,2486.1,1049.8,,,openskistats.org + api.openskimap.org + wikidata.org,2026-01-29
champery-les-crosets-champoussin-morgins,Champéry – Les Crosets – Champoussin – Morgins,Schweiz,Valais,85.3,0.5,0.5,0.5,0.5,0.5,0.5,0.5,46.207234156428584,6.831545555714286,,https://openskimap.org/?obj=5aab8555b0a533bbab416e958475b98050eda5bb,https://skimap.org/skiareas/view/988,https://skimap.org/skiareas/view/988,,,85.3,53,24.9,7.4,140,32,1059.6,2248.7,1189.8,,,openskistats.org + api.openskimap.org + wikidata.org,2026-01-29
chamrousse,Chamrousse,Frankreich,Isère,51.4,0.5,0.5,0.5,0.5,0.5,0.5,0.5,45.111923559375036,5.890897348125,,https://openskimap.org/?obj=705c23e66271d234c4f99f8ea662dfbed74e18c7,https://skimap.org/skiareas/view/717,https://skimap.org/skiareas/view/717,https://www.chamrousse.com/,,51.4,27.7,18,5.7,113,19,1411.1,2245.5,836.2,,,openskistats.org + api.openskimap.org + wikidata.org,2026-01-29
charmey,Charmey,Schweiz,Fribourg,12.5,0.5,0.5,0.5,0.5,0.5,0.5,0.5,46.627723555132484,7.205651484522486,,https://openskimap.org/?obj=a10f881088e5a0f7f638228f6be67fcfa2eec94a,https://skimap.org/skiareas/view/4185,https://skimap.org/skiareas/view/4185,https://www.charmey.ch/,,12.5,6.5,3.7,2.3,8,4,870.9,1617.6,750.7,,,openskistats.org + api.openskimap.org + wikidata.org,2026-01-29
christlum,Christlum,Österreich,Tyrol,15.5,0.5,0.5,0.5,0.5,0.5,0.5,0.5,47.50624604,11.67475134,,https://openskimap.org/?obj=025fadf2cd66440f9ae67b4dde2e4f948552e22e,https://skimap.org/skiareas/view/3764,https://skimap.org/skiareas/view/3764,https://www.christlum.at/,,15.5,3.7,8.4,2.9,33,9,942.1,1745.6,804.2,,,openskistats.org + api.openskimap.org + wikidata.org,2026-01-29
chaserrug-alt-st-johann,Chäserrug-Alt St. Johann,Schweiz,Saint Gallen,33.2,0.5,0.5,0.5,0.5,0.5,0.5,0.5,47.17584530625001,9.305144875,,https://openskimap.org/?obj=2b04168ef9b209ad4cd6b13f80f42eb7e9a652d5,https://skimap.org/skiareas/view/14640,https://skimap.org/skiareas/view/14640,,,33.2,7.2,24.5,1.5,44,16,891.1,2259.2,1368.1,,,openskistats.org + api.openskimap.org + wikidata.org,2026-01-29
cima-piazzi-san-colombano,Cima Piazzi – San Colombano,Italien,Sondrio,23,0.5,0.5,0.5,0.5,0.5,0.5,0.5,46.472444635294124,10.31350501176471,,https://openskimap.org/?obj=5829fc0a80a07adddb2bbb4d77c8be6a6d99254c,https://skimap.org/skiareas/view/19057,https://skimap.org/skiareas/view/19057,https://www.cimapiazzi.eu/,,23,6.2,16.5,0.3,28,10,1337.8,2373.7,1036.1,,,openskistats.org + api.openskimap.org + wikidata.org,2026-01-29
claviere,Claviere,Frankreich,Hautes-Alpes,40.2,0.5,0.5,0.5,0.5,0.5,0.5,0.5,44.93215071333334,6.771291922222223,,https://openskimap.org/?obj=2f571f297e2a25edd4929ab0f42342278adf777c,https://skimap.org/skiareas/view/2096,https://skimap.org/skiareas/view/2096,,,40.2,19.5,19.1,1.6,78,10,1528.3,2405.4,1016,,,openskistats.org + api.openskimap.org + wikidata.org,2026-01-29
cogne,Cogne,Italien,Valle D'Aosta,6.3,0.5,0.5,0.5,0.5,0.5,0.5,0.5,45.597188129580616,7.3646643441501105,,https://openskimap.org/?obj=55f7917f03593a03fdc6323c641e09b7e5f57ad0,https://skimap.org/skiareas/view/4202,https://skimap.org/skiareas/view/4202,https://www.visitcogne.it,,6.3,1,4.8,0.5,7,4,1586.4,2275.9,689.5,,,openskistats.org + api.openskimap.org + wikidata.org,2026-01-29
col-de-marcieu,Col de Marcieu,Frankreich,Isère,2.9,0.5,0.5,0.5,0.5,0.5,0.5,0.5,45.352402677777775,5.910239840277779,,https://openskimap.org/?obj=e9aa7f43df26ae35e5f7c4f86a9e885ac2141be0,,,https://www.col-marcieu.com,,2.9,2,1,,9,3,1021.1,1270.1,251.9,,,openskistats.org + api.openskimap.org + wikidata.org,2026-01-29
col-de-plainpalais,Col de Plainpalais,Frankreich,Savoie,3.1,0.5,0.5,0.5,0.5,0.5,0.5,0.5,45.64178417956072,6.022725035706682,,https://openskimap.org/?obj=f89ceb8321ada7bbcd732a812336bf5dfcf34cb5,,,,,3.1,1.9,1.3,,3,1,1171.2,1448.8,278.7,,,openskistats.org + api.openskimap.org + wikidata.org,2026-01-29
col-de-l-arzelier,Col de l'Arzelier,Frankreich,Isère,3.5,0.5,0.5,0.5,0.5,0.5,0.5,0.5,44.99078440769232,5.587570426923079,,https://openskimap.org/?obj=a6471e912c17be98423d028110f4aa1ac55c1091,https://skimap.org/skiareas/view/719,https://skimap.org/skiareas/view/719,https://col-de-larzelier.fr/,,3.5,1.4,2.1,,6,0,1155.5,1491.1,335.6,,,openskistats.org + api.openskimap.org + wikidata.org,2026-01-29
colere,Colere,Italien,Bergamo,12.4,0.5,0.5,0.5,0.5,0.5,0.5,0.5,45.9766240888889,10.048940366666667,,https://openskimap.org/?obj=b609d30e33e087438252429e93c7fe9e407454d4,https://skimap.org/skiareas/view/4425,https://skimap.org/skiareas/view/4425,https://www.colereski.it,,12.4,0.1,7.7,4.6,18,5,1053.5,2169.7,1121.9,,,openskistats.org + api.openskimap.org + wikidata.org,2026-01-29
colle-di-joux,Colle di Joux,Italien,Valle D'Aosta,3.9,0.5,0.5,0.5,0.5,0.5,0.5,0.5,45.74602617651515,7.70440574772727,,https://openskimap.org/?obj=9636ab95c9f53ed6fe5f99e1e25a495ac811eb69,https://skimap.org/skiareas/view/4200,https://skimap.org/skiareas/view/4200,,,3.9,1.9,1.3,0.7,5,2,1606.2,1957.3,356,,,openskistats.org + api.openskimap.org + wikidata.org,2026-01-29
comprensorio-de-le-polle,Comprensorio de Le Polle,Italien,Modena,2.8,0.5,0.5,0.5,0.5,0.5,0.5,0.5,44.210354827038636,10.695159100858369,,https://openskimap.org/?obj=f6217fd7e238d9953cdbae07de9d7d0f3c6e55aa,,,,,2.8,0.1,2.3,0.3,4,2,1305.3,1442.9,414.9,,,openskistats.org + api.openskimap.org + wikidata.org,2026-01-29
comprensorio-di-passo-del-lupo,Comprensorio di Passo del Lupo,Italien,Modena,29.5,0.5,0.5,0.5,0.5,0.5,0.5,0.5,44.21106579089532,10.715023869195738,,https://openskimap.org/?obj=0676537b2321c8a246c519dc56bcc6e15f4d1474,,,,,29.5,4,20.8,2.9,38,19,1306.2,1869.3,564,,,openskistats.org + api.openskimap.org + wikidata.org,2026-01-29
confin-san-bernardino,Confin / San Bernardino,Schweiz,Graubunden,17.3,0.5,0.5,0.5,0.5,0.5,0.5,0.5,46.457660722222215,9.16337807037037,,https://openskimap.org/?obj=65055c88e8336e55353e287ee01f3b8ce5849a95,https://skimap.org/skiareas/view/15606,https://skimap.org/skiareas/view/15606,https://sanbernardino-swissalps.com/sportarena,,17.3,7.1,8.5,1.7,17,6,1642.7,2514.7,872,,,openskistats.org + api.openskimap.org + wikidata.org,2026-01-29
corno-alle-scale,Corno alle Scale,Italien,Bologna,11.9,0.5,0.5,0.5,0.5,0.5,0.5,0.5,44.12607892439756,10.81536601566265,,https://openskimap.org/?obj=6666280c89136e34df36f513e9eb629d65df4021,https://skimap.org/skiareas/view/4455,https://skimap.org/skiareas/view/4455,https://www.cornoallescale.org/,,11.9,4.4,5.6,1.9,19,6,1419.6,1941.8,526.2,,,openskistats.org + api.openskimap.org + wikidata.org,2026-01-29
cortina-tofane,Cortina Tofane,Italien,Belluno,38.6,0.5,0.5,0.5,0.5,0.5,0.5,0.5,46.54192947837837,12.102789954054051,,https://openskimap.org/?obj=9838fb2aa78f10391ff5a3bf3e85105c0f8b73e6,,,https://www.impianticortina.it/,,38.6,25.4,8.9,4.3,58,12,1211.6,2735.7,1535,,,openskistats.org + api.openskimap.org + wikidata.org,2026-01-29
corvatsch-furtschellas,Corvatsch-Furtschellas,Schweiz,Graubunden,39.6,0.5,0.5,0.5,0.5,0.5,0.5,0.5,46.432679919684375,9.814588782506112,,https://openskimap.org/?obj=13756027a3c85c2f3e1b8742865baa4f2469a277,https://skimap.org/skiareas/view/17103,https://skimap.org/skiareas/view/17103,https://www.corvatsch-diavolezza.ch/,,39.6,5.6,28.5,5.4,69,15,1799.3,3296.1,1522.8,,,openskistats.org + api.openskimap.org + wikidata.org,2026-01-29
corviglia,Corviglia,Schweiz,Graubunden,66.2,0.5,0.5,0.5,0.5,0.5,0.5,0.5,46.50759262039439,9.818508147504609,,https://openskimap.org/?obj=f9beaf4e37ef88b422b9ee4aa2ae9224f10afd02,https://skimap.org/skiareas/view/1011,https://skimap.org/skiareas/view/1011,https://www.mountains.ch/,,66.2,23,31.2,10.3,101,44,1733.4,3020.7,1298.8,,,openskistats.org + api.openskimap.org + wikidata.org,2026-01-29
courmayeur,Courmayeur,Italien,Valle D'Aosta,42.1,0.5,0.5,0.5,0.5,0.5,0.5,0.5,45.801442616883115,6.939206119480519,,https://openskimap.org/?obj=349f901b7ae1ab9e324e59654d401933e7ff48ba,https://skimap.org/skiareas/view/2066,https://skimap.org/skiareas/view/2066,https://www.courmayeur-montblanc.com/,,42.1,16,21.4,4.5,103,24,1194.8,2748.5,1553.7,,,openskistats.org + api.openskimap.org + wikidata.org,2026-01-29
crans-montana,Crans-Montana,Schweiz,Valais,72.3,0.5,0.5,0.5,0.5,0.5,0.5,0.5,46.33173789537579,7.494424207208432,,https://openskimap.org/?obj=7764d597cda909bb1bc7fd66a07bbfa6bb8ab695,https://skimap.org/skiareas/view/991,https://skimap.org/skiareas/view/991,https://www.crans-montana.ch/,,72.3,14.5,43.8,14,107,24,1427.2,2872.3,1374.8,,,openskistats.org + api.openskimap.org + wikidata.org,2026-01-29
crissolo-monviso-ski,Crissolo - Monviso Ski,Italien,Cuneo,11.8,0.5,0.5,0.5,0.5,0.5,0.5,0.5,44.69244381929826,7.130398840350876,,https://openskimap.org/?obj=fc720f91e1fe28b9062444c56bcf37348f4dc799,https://skimap.org/skiareas/view/4486,https://skimap.org/skiareas/view/4486,,,11.8,4.7,4.9,2.2,9,4,1530.1,2306.9,782,,,openskistats.org + api.openskimap.org + wikidata.org,2026-01-29
cristallo-faloria,Cristallo - Faloria,Italien,Belluno,18.5,0.5,0.5,0.5,0.5,0.5,0.5,0.5,46.55489041212122,12.175399918181819,,https://openskimap.org/?obj=aab0c144b67f3348d6b4f936f56a49e58b77fa82,,,https://faloriacristallo.it/,,18.5,5.5,8.3,4.7,28,7,1686.3,2352.3,666,,,openskistats.org + api.openskimap.org + wikidata.org,2026-01-29
crevacol,Crévacol,Italien,Valle D'Aosta,21.6,0.5,0.5,0.5,0.5,0.5,0.5,0.5,45.82822643809524,7.149431880952377,,https://openskimap.org/?obj=3be9f18be370e3f03e39bbe190a2902d5b33051c,https://skimap.org/skiareas/view/12959,https://skimap.org/skiareas/view/12959,https://www.crevacol.it,,21.6,8.4,9.9,3.3,28,3,1646.4,2446.1,801.3,,,openskistats.org + api.openskimap.org + wikidata.org,2026-01-29
crevoux,Crévoux,Frankreich,Hautes-Alpes,20.1,0.5,0.5,0.5,0.5,0.5,0.5,0.5,44.53873155395111,6.623483949446462,,https://openskimap.org/?obj=494122163c8aa3f93f43ccee9fd0ee83a3a03d62,https://skimap.org/skiareas/view/677,https://skimap.org/skiareas/view/677,https://www.crevoux.fr/,,20.1,9.7,5.2,5.3,29,5,1615.4,2537.2,921.9,,,openskistats.org + api.openskimap.org + wikidata.org,2026-01-29
cret-du-puy,Crêt-du-Puy,Schweiz,Neuchatel,6.1,0.5,0.5,0.5,0.5,0.5,0.5,0.5,47.09111260585105,6.993601080319152,,https://openskimap.org/?obj=2220c1fa41c7444045df8f2d333fca7aca8a3cf7,https://skimap.org/skiareas/view/5413,https://skimap.org/skiareas/view/5413,https://www.cretdupuy.com/,,6.1,4.1,0.8,1.2,8,2,869.9,1255.6,386.4,,,openskistats.org + api.openskimap.org + wikidata.org,2026-01-29
damuls,Damüls,Österreich,Vorarlberg,64.9,0.5,0.5,0.5,0.5,0.5,0.5,0.5,47.294579820483385,9.880193560921457,,https://openskimap.org/?obj=4f8cc7c822ff08fe15a457cfd10dacbe603a16cf,https://skimap.org/skiareas/view/2700,https://skimap.org/skiareas/view/2700,,,64.9,24.9,27.5,12.5,156,16,1376.1,2021.1,659.5,,,openskistats.org + api.openskimap.org + wikidata.org,2026-01-29
degersheim,Degersheim,Schweiz,Appenzell Ausserrhoden,5.3,0.5,0.5,0.5,0.5,0.5,0.5,0.5,47.36272421385279,9.19826684935065,,https://openskimap.org/?obj=d5eb86638cb6f906a2958190e3eb29ca215d8695,https://skimap.org/skiareas/view/17947,https://skimap.org/skiareas/view/17947,https://www.skilift-degersheim.ch,,5.3,3.2,2.2,,10,3,808.3,1050.9,242.6,,,openskistats.org + api.openskimap.org + wikidata.org,2026-01-29
dent-de-vaulion-le-morez,Dent de Vaulion – Le Morez,Schweiz,Vaud,7.1,0.5,0.5,0.5,0.5,0.5,0.5,0.5,46.68139387692308,6.356367130769229,,https://openskimap.org/?obj=d019559a31cd7a008021c01b524203dfae12e428,,,,,7.1,4.8,1.8,0.5,11,4,1154.1,1465.4,314.9,,,openskistats.org + api.openskimap.org + wikidata.org,2026-01-29
diavolezza-lagalb,Diavolezza-Lagalb,Schweiz,Graubunden,19.4,0.5,0.5,0.5,0.5,0.5,0.5,0.5,46.427596850186184,9.976315278440962,,https://openskimap.org/?obj=b46b8286189d83f14e1d35e75381a2f4ac231f9b,https://skimap.org/skiareas/view/17105,https://skimap.org/skiareas/view/17105,https://www.corvatsch-diavolezza.ch/berge/diavolezza,,19.4,,15.1,4.3,20,7,2083.7,3003.3,919.6,,,openskistats.org + api.openskimap.org + wikidata.org,2026-01-29
disentis-muster,Disentis/Mustér,Schweiz,Graubunden,34.7,0.5,0.5,0.5,0.5,0.5,0.5,0.5,46.70333013454111,8.806471697745549,,https://openskimap.org/?obj=d49fb763370f4ddb93f355430d537911de694958,,,,,34.7,18,8.2,8.5,63,13,1222.6,2769.6,1552.9,,,openskistats.org + api.openskimap.org + wikidata.org,2026-01-29
doganaccia,Doganaccia,Italien,Pistoia,6,0.5,0.5,0.5,0.5,0.5,0.5,0.5,44.118868039766795,10.772026443481533,,https://openskimap.org/?obj=5d602be9c7766d257d7df2796b2e53ddd9141e7d,https://skimap.org/skiareas/view/4933,https://skimap.org/skiareas/view/4933,https://www.doganaccia2000.it/,,6,3.6,0.6,1.8,11,4,1431.3,1668.1,236.8,,,openskistats.org + api.openskimap.org + wikidata.org,2026-01-29
domaine-alpin-du-col-d-ornon,Domaine Alpin du Col d'Ornon,Frankreich,Isère,7.1,0.5,0.5,0.5,0.5,0.5,0.5,0.5,45.02159061178231,5.977441650976097,,https://openskimap.org/?obj=cfbdf0c0870e8baf8c048438de3175df84e88082,https://skimap.org/skiareas/view/720,https://skimap.org/skiareas/view/720,https://www.col-dornon.com/fr/index.php,,7.1,3.9,2.2,0.9,21,4,1332.3,1866.7,534.9,,,openskistats.org + api.openskimap.org + wikidata.org,2026-01-29
domaine-autrans-meaudre,Domaine Autrans - Méaudre,Frankreich,Isère,20.7,0.5,0.5,0.5,0.5,0.5,0.5,0.5,45.14919945414014,5.528825522292995,,https://openskimap.org/?obj=c4fe645047e06c17f033f3092f88a83b9f7012e2,https://skimap.org/skiareas/view/734,https://skimap.org/skiareas/view/734,https://autrans-meaudre.com/,,20.7,10.8,7.2,2.7,42,14,1002.7,1604.7,604.5,,,openskistats.org + api.openskimap.org + wikidata.org,2026-01-29
domaine-skiable-chamrousse,Domaine Skiable Chamrousse,Frankreich,Isère,50.1,0.5,0.5,0.5,0.5,0.5,0.5,0.5,45.117010645901644,5.886566563934425,,https://openskimap.org/?obj=9fe896a648d66b5c9d92d7d85fb2aff59ca5e5d7,https://skimap.org/skiareas/view/717,https://skimap.org/skiareas/view/717,https://www.chamrousse.com/,,50.1,27.7,16.7,5.7,112,18,1411.1,2245.5,836.2,,,openskistats.org + api.openskimap.org + wikidata.org,2026-01-29
domaine-skiable-saint-leger-les-melezes,Domaine Skiable Saint-Léger-Les-Mélèzes,Frankreich,Hautes-Alpes,14.5,0.5,0.5,0.5,0.5,0.5,0.5,0.5,44.64460828095238,6.217288661904762,,https://openskimap.org/?obj=0b3e2debf15563d3d845af1dd2dd094deb27812f,https://skimap.org/skiareas/view/690,https://skimap.org/skiareas/view/690,https://www.champsaur-valgaudemar.com/hiver/ski-et-neige/les-stations/saint-leger-les-melezes,,14.5,12.2,1.6,0.7,20,10,1262.9,1982.4,720.7,,,openskistats.org + api.openskimap.org + wikidata.org,2026-01-29
domaine-skiable-valberg,Domaine skiable Valberg,Frankreich,Alpes-Maritimes,54.3,0.5,0.5,0.5,0.5,0.5,0.5,0.5,44.081306278881996,6.948448651552793,,https://openskimap.org/?obj=d33fdae30ec8d64328941afdb3e23384f564839a,https://skimap.org/skiareas/view/703,https://skimap.org/skiareas/view/703,https://www.valberg.com,,54.3,27.6,22.2,4.3,96,25,1414.2,2012.5,608.9,,,openskistats.org + api.openskimap.org + wikidata.org,2026-01-29
domobianca,Domobianca,Italien,Verbano-Cusio-Ossola,11.3,0.5,0.5,0.5,0.5,0.5,0.5,0.5,46.09844649493672,8.238705188607593,,https://openskimap.org/?obj=d9332bf3676666dc7fb5749ff99faf2f6edc0d59,https://skimap.org/skiareas/view/4399,https://skimap.org/skiareas/view/4399,http://www.domobianca.it/,,11.3,0.9,9.1,1.3,26,8,1088.3,1839.9,752.3,,,openskistats.org + api.openskimap.org + wikidata.org,2026-01-29
devoluy,Dévoluy,Frankreich,Hautes-Alpes,69.1,0.5,0.5,0.5,0.5,0.5,0.5,0.5,44.6687211461062,5.90679089446902,,https://openskimap.org/?obj=8e5dbdde0808be45e5e47253e905635c9f867c3b,https://skimap.org/skiareas/view/678,https://skimap.org/skiareas/view/678,https://www.ledevoluy.com/,,69.1,45.1,16.7,7.1,105,23,1457.6,2494.9,1039.1,,,openskistats.org + api.openskimap.org + wikidata.org,2026-01-29
ebenalp-horn,Ebenalp-Horn,Schweiz,Appenzell Innerrhoden,9.5,0.5,0.5,0.5,0.5,0.5,0.5,0.5,47.28820478256758,9.4137534368919,,https://openskimap.org/?obj=10400cd9ba66f3c58414ad6746dda13be05be84c,https://skimap.org/skiareas/view/3839,https://skimap.org/skiareas/view/3839,https://www.ebenalp.ch/de/winter-info,,9.5,1.2,7.3,1,18,6,846.2,1700.6,854.8,,,openskistats.org + api.openskimap.org + wikidata.org,2026-01-29
ebingen,Ebingen,Deutschland,Baden-Württemberg,2.4,0.5,0.5,0.5,0.5,0.5,0.5,0.5,48.197541792484316,8.998653765495572,,https://openskimap.org/?obj=ed62614ad61d8512e417c2137fbbc905904a2cee,,,,,2.4,1,1.3,0.1,10,2,758.1,929.4,173.4,,,openskistats.org + api.openskimap.org + wikidata.org,2026-01-29
ehrwalder-alm,Ehrwalder Alm,Österreich,Tyrol,17.6,0.5,0.5,0.5,0.5,0.5,0.5,0.5,47.38400477295374,10.97520328683274,,https://openskimap.org/?obj=3b83b24cb810ad7699ad3a62b183cf3617da125e,https://skimap.org/skiareas/view/17161,https://skimap.org/skiareas/view/17161,https://www.almbahn.at/,,17.6,11.5,4.2,0.9,26,6,1112.2,1919.8,809.2,,,openskistats.org + api.openskimap.org + wikidata.org,2026-01-29
elm,Elm,Schweiz,Glarus,27.6,0.5,0.5,0.5,0.5,0.5,0.5,0.5,46.920471853153956,9.146152549070404,,https://openskimap.org/?obj=9b2e119addfc0afa49b11fa80970374732521abb,https://skimap.org/skiareas/view/4392,https://skimap.org/skiareas/view/4392,https://www.elm.ch/,,27.6,13.2,8.8,5.6,67,8,1016.1,2100,1083.9,,,openskistats.org + api.openskimap.org + wikidata.org,2026-01-29
elsigenalp,Elsigenalp,Schweiz,Bern,28.1,0.5,0.5,0.5,0.5,0.5,0.5,0.5,46.518845458942145,7.624582576326311,,https://openskimap.org/?obj=6f191d7d668cc5585e972733711d6b72ca99b5db,https://skimap.org/skiareas/view/17211,https://skimap.org/skiareas/view/17211,,,28.1,10.7,14.8,2.6,37,11,1322.5,2282.8,960.3,,,openskistats.org + api.openskimap.org + wikidata.org,2026-01-29
embach,Embach,Österreich,Salzburg,3.2,0.5,0.5,0.5,0.5,0.5,0.5,0.5,47.286801835130156,12.994054005762075,,https://openskimap.org/?obj=d432acfab1cd765b3606d4ff0b76bb159293c0d3,,,,,3.2,1.7,1.4,,6,2,1009,1289.7,280.7,,,openskistats.org + api.openskimap.org + wikidata.org,2026-01-29
embergeralm,Embergeralm,Österreich,Carinthia,4.8,0.5,0.5,0.5,0.5,0.5,0.5,0.5,46.774812518181825,13.152215954545454,,https://openskimap.org/?obj=027a6c167cd6175f95d2f08a552cdbfe547494e4,https://skimap.org/skiareas/view/13530,https://skimap.org/skiareas/view/13530,https://www.embergeralm.info/,,4.8,1.1,3.2,0.5,16,5,1658.6,2109.8,451.2,,,openskistats.org + api.openskimap.org + wikidata.org,2026-01-29
engelberg-ristis-brunni,Engelberg - Ristis-Brunni,Schweiz,Obwalden,7.1,0.5,0.5,0.5,0.5,0.5,0.5,0.5,46.83567470549024,8.41006272549019,,https://openskimap.org/?obj=60ae6a4bd373c7647711eb17afff52e8ade2ac05,,,,,7.1,2.8,1.6,2.6,13,7,1012.6,2058.3,1046.1,,,openskistats.org + api.openskimap.org + wikidata.org,2026-01-29
engstingen,Engstingen,Deutschland,Baden-Württemberg,4.3,0.5,0.5,0.5,0.5,0.5,0.5,0.5,48.38544341090908,9.319619815454544,,https://openskimap.org/?obj=3ef364cb63fb4cfa51ade49d171a801bcc74c227,,,,,4.3,1.7,2.7,,17,6,697,775.1,79.4,,,openskistats.org + api.openskimap.org + wikidata.org,2026-01-29
engstligenalp,Engstligenalp,Schweiz,Bern,9.7,0.5,0.5,0.5,0.5,0.5,0.5,0.5,46.43620783898305,7.572683483898303,,https://openskimap.org/?obj=74b11097056348d4cf78c158c5ecec65a67ed4c6,https://skimap.org/skiareas/view/17212,https://skimap.org/skiareas/view/17212,https://engstligenalp.ch,,9.7,4,3.8,1.8,9,6,1953.1,2354.2,402,,,openskistats.org + api.openskimap.org + wikidata.org,2026-01-29
eriz,Eriz,Schweiz,Bern,5.7,0.5,0.5,0.5,0.5,0.5,0.5,0.5,46.776933170352095,7.82554807782412,,https://openskimap.org/?obj=7608d7db48ec93b3b0d08898a19cc6d573273f92,https://skimap.org/skiareas/view/17806,https://skimap.org/skiareas/view/17806,https://www.snowparkeriz.ch/,,5.7,2.7,1.5,1.5,7,4,1055.7,1379.4,323.7,,,openskistats.org + api.openskimap.org + wikidata.org,2026-01-29
espace-diamant,Espace Diamant,Frankreich,Savoie,176.6,0.5,0.5,0.5,0.5,0.5,0.5,0.5,45.771978900307815,6.536621077265618,,https://openskimap.org/?obj=0345d73f7a4bf0f49815ccb16306a3ec6371544b,https://skimap.org/skiareas/view/771,https://skimap.org/skiareas/view/771,https://www.espacediamant.com/,,176.6,121.7,43,11.9,269,92,1007.8,2048.4,1045.9,,,openskistats.org + api.openskimap.org + wikidata.org,2026-01-29
espace-liberte,Espace Liberté,Frankreich,Haute-Savoie,107.1,0.5,0.5,0.5,0.5,0.5,0.5,0.5,46.26906004607844,6.81140694509804,,https://openskimap.org/?obj=baca23b1d6c08055f995fe20b50e3f6910b2ea2b,,,https://en.chatel.com/chatel-and-portes-du-soleil-ski-areas.html,,107.1,53,42.4,6.6,219,53,994,2094.3,1105.6,,,openskistats.org + api.openskimap.org + wikidata.org,2026-01-29
espace-lumiere,Espace Lumière,Frankreich,Alpes-de-Haute-Provence,176.5,0.5,0.5,0.5,0.5,0.5,0.5,0.5,44.33380288285837,6.577948430943125,,https://openskimap.org/?obj=e7c4c03bd7f9a3d907ff566775cfba1823bcf2ae,https://skimap.org/skiareas/view/664,https://skimap.org/skiareas/view/664,,,176.5,53.1,56,67.5,395,39,1494,2591.9,1098,,,openskistats.org + api.openskimap.org + wikidata.org,2026-01-29
evolene,Evolène,Schweiz,Valais,26.9,0.5,0.5,0.5,0.5,0.5,0.5,0.5,46.11512620000003,7.456636984313725,,https://openskimap.org/?obj=7f97f3d4fc41aa2b1745adb87cd0373744b36c25,https://skimap.org/skiareas/view/3784,https://skimap.org/skiareas/view/3784,https://www.evolene-region.ch/,,26.9,10.2,11.3,5.4,30,5,1384.5,2625,1269,,,openskistats.org + api.openskimap.org + wikidata.org,2026-01-29
fageralm,Fageralm,Österreich,Salzburg,19.6,0.5,0.5,0.5,0.5,0.5,0.5,0.5,47.35641278999999,13.53776523,,https://openskimap.org/?obj=5c9de5fe7ea4364286b7292e69e65feb1055e77d,https://skimap.org/skiareas/view/14612,https://skimap.org/skiareas/view/14612,,,19.6,10.6,8.1,,28,6,935.1,1853.6,920.6,,,openskistats.org + api.openskimap.org + wikidata.org,2026-01-29
faltschen,Faltschen,Schweiz,Bern,4.8,0.5,0.5,0.5,0.5,0.5,0.5,0.5,46.62794925,7.7243328125,,https://openskimap.org/?obj=6eb3a428b0e8ec8940259d3cfc8ab996b2007287,https://skimap.org/skiareas/view/18059,https://skimap.org/skiareas/view/18059,https://www.skilift-faltschen.ch/,,4.8,2.7,2.1,,7,2,1029.9,1338.6,308.7,,,openskistats.org + api.openskimap.org + wikidata.org,2026-01-29
familienschiberg-st-jakob-im-walde,Familienschiberg St. Jakob im Walde,Österreich,Styria,2.6,0.5,0.5,0.5,0.5,0.5,0.5,0.5,47.479675409090916,15.784861809090906,,https://openskimap.org/?obj=32294ae58751c958f74c1e4124116a43eb843beb,,,https://www.familienschiberg.at,,2.6,1.3,1.3,,6,3,1009.8,1190,180.2,,,openskistats.org + api.openskimap.org + wikidata.org,2026-01-29
feldberg,Feldberg,Deutschland,Baden-Württemberg,22.2,0.5,0.5,0.5,0.5,0.5,0.5,0.5,47.85519936026058,8.021716258143325,,https://openskimap.org/?obj=ac6e8db707345e560695c24c1d0ec5bc069a797f,https://skimap.org/skiareas/view/976,https://skimap.org/skiareas/view/976,https://www.liftverbund-feldberg.de/,,22.2,11,7.7,3.5,51,17,932.4,1445.5,513.6,,,openskistats.org + api.openskimap.org + wikidata.org,2026-01-29
feldis,Feldis,Schweiz,Graubunden,7.6,0.5,0.5,0.5,0.5,0.5,0.5,0.5,46.79547995758338,9.449501008712936,,https://openskimap.org/?obj=2b1e86f96a3078624004d715e64f1227364d50d4,https://skimap.org/skiareas/view/4397,https://skimap.org/skiareas/view/4397,https://www.bergbahnen-feldis.ch/,,7.6,,7.6,,4,2,1480.2,1970.2,493.7,,,openskistats.org + api.openskimap.org + wikidata.org,2026-01-29
fendels,Fendels,Österreich,Tyrol,9.8,0.5,0.5,0.5,0.5,0.5,0.5,0.5,47.04797501666666,10.685236155555556,,https://openskimap.org/?obj=9e030cc5791ded02f4222c634ce8d1f1660ac5dc,,,https://www.kaunertaler-gletscher.at/winter/meine-berge/fendels/lifte-winterberg-fendels,,9.8,4.7,3.6,1.6,19,6,1340.1,2247.4,907.3,,,openskistats.org + api.openskimap.org + wikidata.org,2026-01-29
feuerkogel,Feuerkogel,Österreich,Upper Austria,10.9,0.5,0.5,0.5,0.5,0.5,0.5,0.5,47.811313981818174,13.730062745454546,,https://openskimap.org/?obj=5aa0f114890b3e6c408683c33583fe843696295e,https://skimap.org/skiareas/view/649,https://skimap.org/skiareas/view/649,https://feuerkogel.info/,,10.9,8.4,1.5,0.9,29,7,1049.5,1675.7,626.2,,,openskistats.org + api.openskimap.org + wikidata.org,2026-01-29
fideriser-heuberge,Fideriser Heuberge,Schweiz,Graubunden,9,0.5,0.5,0.5,0.5,0.5,0.5,0.5,46.86585513565218,9.72747494173913,,https://openskimap.org/?obj=edc48a6e5af67b189417264a0a5e8696c4c6ed12,https://skimap.org/skiareas/view/5029,https://skimap.org/skiareas/view/5029,https://www.heuberge.ch/,,9,4,4.4,0.6,9,3,1952.5,2354,405.4,,,openskistats.org + api.openskimap.org + wikidata.org,2026-01-29
filzmoos-neuberg,Filzmoos-Neuberg,Österreich,Salzburg,13.6,0.5,0.5,0.5,0.5,0.5,0.5,0.5,47.43354517058824,13.503012458823534,,https://openskimap.org/?obj=ef98b33951faa4c79acb1689d744b12d9c85a9e1,https://skimap.org/skiareas/view/12369,https://skimap.org/skiareas/view/12369,https://www.filzmoos.at/,,13.6,8.8,4.4,0.4,17,7,967.9,1584.2,617.8,,,openskistats.org + api.openskimap.org + wikidata.org,2026-01-29
fischenthal,Fischenthal,Schweiz,Zurich,3.2,0.5,0.5,0.5,0.5,0.5,0.5,0.5,47.31998469740261,8.929621710389608,,https://openskimap.org/?obj=8df8797600f39977678f55498dda523967f7f1aa,https://skimap.org/skiareas/view/17934,https://skimap.org/skiareas/view/17934,https://www.skilift-fischenthal.ch,,3.2,1.2,1.4,0.6,5,4,823.8,1049.1,225.3,,,openskistats.org + api.openskimap.org + wikidata.org,2026-01-29
flachau,Flachau,Österreich,Salzburg,43.7,0.5,0.5,0.5,0.5,0.5,0.5,0.5,47.34048200909091,13.350202509090908,,https://openskimap.org/?obj=14b4ddb66d56cfb67e579c250c5931cb86a1f989,https://skimap.org/skiareas/view/612,https://skimap.org/skiareas/view/612,https://www.snow-space.com/,,43.7,9.7,32.3,1.7,73,29,882.3,1976.5,1094.2,,,openskistats.org + api.openskimap.org + wikidata.org,2026-01-29
flumserberg,Flumserberg,Schweiz,Saint Gallen,59.3,0.5,0.5,0.5,0.5,0.5,0.5,0.5,47.078736239257,9.268995668359112,,https://openskimap.org/?obj=f9d49079770850663f3c200a1956a203489c57ac,https://skimap.org/skiareas/view/1020,https://skimap.org/skiareas/view/1020,https://www.flumserberg.ch/,,59.3,12.5,31.5,13.6,122,24,667.2,2218.2,1551,,,openskistats.org + api.openskimap.org + wikidata.org,2026-01-29
folgaria-area-sciistica-folgaria,"Folgaria, Area sciistica Folgaria",Italien,Trento,46.2,0.5,0.5,0.5,0.5,0.5,0.5,0.5,45.893840238532086,11.211094677064215,,https://openskimap.org/?obj=2f30e6cc24791f93fe1c0eabc3ddc75f5eae8584,https://skimap.org/skiareas/view/4227,https://skimap.org/skiareas/view/4227,https://www.alpecimbra.it/de/skigebiet-alpe-cimbra/lavarone-folgaria-skigebiet/46-0.html,,46.2,25.6,18.4,2,72,32,1223,1811.3,589.5,,,openskistats.org + api.openskimap.org + wikidata.org,2026-01-29
folgarida-marilleva,Folgarida-Marilleva,Italien,Trento,39.4,0.5,0.5,0.5,0.5,0.5,0.5,0.5,46.29612469787234,10.8345808212766,,https://openskimap.org/?obj=aaea5a8af2e4bbcafe21bedf8accd50ee1700dae,,,https://www.visittrentino.info/en/trentino/ski-areas/alpine-skiing/folgarida-marilleva-skiarea-campiglio-dolomiti-di-brenta-val-di-sole-val-rendena_md_2211,,39.4,21.9,11.3,6.2,92,27,1290.8,2170.3,882.5,,,openskistats.org + api.openskimap.org + wikidata.org,2026-01-29
font-d-urle-chaud-clapier,Font d'Urle Chaud Clapier,Frankreich,Drôme,16.1,0.5,0.5,0.5,0.5,0.5,0.5,0.5,44.911288444444445,5.323823,,https://openskimap.org/?obj=1d00a3f356e6ee869926e23d9a9457cdc5f9eebf,https://skimap.org/skiareas/view/707,https://skimap.org/skiareas/view/707,,,16.1,11.1,4.2,0.8,47,11,1274.5,1540.5,266,,,openskistats.org + api.openskimap.org + wikidata.org,2026-01-29
foppolo-carona,Foppolo - Carona,Italien,Bergamo,7.5,0.5,0.5,0.5,0.5,0.5,0.5,0.5,46.04138492346653,9.763003525030841,,https://openskimap.org/?obj=5bde5697444960d0cca1ab4814300524b1651091,https://skimap.org/skiareas/view/2404,https://skimap.org/skiareas/view/2404,https://www.brembanaski.com/,,7.5,1.8,5.7,,12,10,1596.9,2147,514.6,,,openskistats.org + api.openskimap.org + wikidata.org,2026-01-29
foppolo-carona-2,Foppolo-Carona,Italien,Bergamo,16.4,0.5,0.5,0.5,0.5,0.5,0.5,0.5,46.03844763448275,9.777762334482759,,https://openskimap.org/?obj=b6f6de82ccd16d7dfaabb706d6715a37a1805596,https://skimap.org/skiareas/view/2404,https://skimap.org/skiareas/view/2404,https://www.brembanaski.com/foppolo.html,,16.4,3.8,10.9,1.7,30,10,1632.4,2147.2,514.8,,,openskistats.org + api.openskimap.org + wikidata.org,2026-01-29
forcella-aurine,Forcella Aurine,Italien,Belluno,2,0.5,0.5,0.5,0.5,0.5,0.5,0.5,46.23265182169809,11.974723045283017,,https://openskimap.org/?obj=403d9e49a63730e0eb0b24d8f88ee018542bd65a,https://skimap.org/skiareas/view/4403,https://skimap.org/skiareas/view/4403,,,2,1.2,0.4,0.3,4,2,1302,1443.3,144.9,,,openskistats.org + api.openskimap.org + wikidata.org,2026-01-29
forni-di-sopra,Forni di Sopra,Italien,Udine,12.9,0.5,0.5,0.5,0.5,0.5,0.5,0.5,46.43989080803034,12.566132983787881,,https://openskimap.org/?obj=0736f548620b2c05f5652e7ed925bd94e6381699,https://skimap.org/skiareas/view/4273,https://skimap.org/skiareas/view/4273,,,12.9,1.3,11.6,,30,8,882.2,2068,1187.2,,,openskistats.org + api.openskimap.org + wikidata.org,2026-01-29
foret-blanche-vars-risoul,Forêt Blanche : Vars/Risoul,Frankreich,Hautes-Alpes,127.1,0.5,0.5,0.5,0.5,0.5,0.5,0.5,44.58975035937857,6.653041415225986,,https://openskimap.org/?obj=9d0b2c5e0fcac9deba9c727a834cac4b43a5d2c9,https://skimap.org/skiareas/view/693,https://skimap.org/skiareas/view/693,https://www.vars.com/hiver/,,127.1,82.9,36.7,7.2,170,38,1632.2,2721.5,1089.3,,,openskistats.org + api.openskimap.org + wikidata.org,2026-01-29
frabosa-soprana,Frabosa Soprana,Italien,Cuneo,20.9,0.5,0.5,0.5,0.5,0.5,0.5,0.5,44.27345325081179,7.798963428040831,,https://openskimap.org/?obj=355784fa59846ad33382490c4fcf63f1756d10db,https://skimap.org/skiareas/view/2089,https://skimap.org/skiareas/view/2089,,,20.9,5.6,14.9,0.4,22,7,878.9,1730.1,851.2,,,openskistats.org + api.openskimap.org + wikidata.org,2026-01-29
freesports-arena-dachstein-krippenstein,Freesports Arena Dachstein Krippenstein,Österreich,Upper Austria,29.4,0.5,0.5,0.5,0.5,0.5,0.5,0.5,47.52586814,13.688746865000002,,https://openskimap.org/?obj=490e16792d273510182c465678e4a27650f29800,https://skimap.org/skiareas/view/646,https://skimap.org/skiareas/view/646,https://dachstein-salzkammergut.com/,,29.4,3.9,16.8,1.3,47,9,598.5,2072.3,2160.6,,,openskistats.org + api.openskimap.org + wikidata.org,2026-01-29
frohnd,Fröhnd,Deutschland,Baden-Württemberg,4.7,0.5,0.5,0.5,0.5,0.5,0.5,0.5,47.76570869189191,7.863913448648647,,https://openskimap.org/?obj=8c6ebe370270900fef18f5a1dc2580b64bc0e1bd,,,,,4.7,3.7,1,,7,1,697.9,985,287.1,,,openskistats.org + api.openskimap.org + wikidata.org,2026-01-29
fussener-jochle-gran,Füssener Jöchle-Grän,Österreich,Tyrol,9.4,0.5,0.5,0.5,0.5,0.5,0.5,0.5,47.50819326111112,10.57973565,,https://openskimap.org/?obj=ea240a7b7e4d46ce55a93a5a1cf3a11d71aa86b1,https://skimap.org/skiareas/view/17145,https://skimap.org/skiareas/view/17145,https://www.lifte-graen.com/,,9.4,2.2,6.8,0.4,13,5,1154.5,1869.4,714.9,,,openskistats.org + api.openskimap.org + wikidata.org,2026-01-29
gaaler-lifte,Gaaler Lifte,Österreich,Styria,5.9,0.5,0.5,0.5,0.5,0.5,0.5,0.5,47.26078101000001,14.68070836,,https://openskimap.org/?obj=ad0d22a9d354edc3261b825022f84bb1a1c8db63,https://skimap.org/skiareas/view/18982,https://skimap.org/skiareas/view/18982,https://gaalerlifte.at,,5.9,2.9,3,,12,3,860.9,1224.1,363.2,,,openskistats.org + api.openskimap.org + wikidata.org,2026-01-29
gaberl,Gaberl,Österreich,Styria,3.5,0.5,0.5,0.5,0.5,0.5,0.5,0.5,47.105315611111116,14.92233651111111,,https://openskimap.org/?obj=6077609ff1727bffa62c38fc3120301298515723,https://skimap.org/skiareas/view/18983,https://skimap.org/skiareas/view/18983,https://gaberl.at/,,3.5,0.6,2.4,0.5,6,2,1302.1,1548.9,246.8,,,openskistats.org + api.openskimap.org + wikidata.org,2026-01-29
galibier-thabor,Galibier-Thabor,Frankreich,Savoie,131.5,0.5,0.5,0.5,0.5,0.5,0.5,0.5,45.16469769345039,6.465745442366673,,https://openskimap.org/?obj=0c1ee22aff92dce160be7b206226d0e3b73328b2,https://skimap.org/skiareas/view/791,https://skimap.org/skiareas/view/791,,,131.5,79.9,41,10.3,172,34,1404.7,2737.9,1336.5,,,openskistats.org + api.openskimap.org + wikidata.org,2026-01-29
galsterberg,Galsterberg,Österreich,Styria,12.8,0.5,0.5,0.5,0.5,0.5,0.5,0.5,47.391529178260875,13.866003817391308,,https://openskimap.org/?obj=84a0e88d3c0c70761af4514a6d7a308d9d323a52,https://skimap.org/skiareas/view/13534,https://skimap.org/skiareas/view/13534,https://www.galsterberg.at,,12.8,6.8,5.7,0.2,25,5,1136.1,1976.1,841.6,,,openskistats.org + api.openskimap.org + wikidata.org,2026-01-29
galtur,Galtür,Österreich,Tyrol,26.9,0.5,0.5,0.5,0.5,0.5,0.5,0.5,46.96394008888889,10.132979116666666,,https://openskimap.org/?obj=fab7bb3b620fc31e33461fae32cc88a87cdd7b47,https://skimap.org/skiareas/view/16430,https://skimap.org/skiareas/view/16430,,,26.9,3.3,17.8,5.3,48,10,1628.1,2295,664.7,,,openskistats.org + api.openskimap.org + wikidata.org,2026-01-29
gantrisch-gurnigel,Gantrisch - Gurnigel,Schweiz,Bern,5.9,0.5,0.5,0.5,0.5,0.5,0.5,0.5,46.72412509014085,7.452759083098592,,https://openskimap.org/?obj=d011cfc746e834321d4c8f8fd4ffdb21ce106805,,,,,5.9,4.7,1.2,,8,2,1339.3,1574.6,237.5,,,openskistats.org + api.openskimap.org + wikidata.org,2026-01-29
gantrisch-ottenleue,Gantrisch - Ottenleue,Schweiz,Bern,3,0.5,0.5,0.5,0.5,0.5,0.5,0.5,46.73503102352942,7.363947356862744,,https://openskimap.org/?obj=7277bf74f039a04436b31319dea2f6d3ee519172,,,,,3,1,2,,5,1,1451.1,1627.5,201.8,,,openskistats.org + api.openskimap.org + wikidata.org,2026-01-29
gantrisch-rueschegg,Gantrisch - Rueschegg,Schweiz,Bern,11.3,0.5,0.5,0.5,0.5,0.5,0.5,0.5,46.74748342872098,7.426419657581225,,https://openskimap.org/?obj=a75ba724521506bc66cf2665ccd6cce9cb07c627,https://skimap.org/skiareas/view/3788,https://skimap.org/skiareas/view/3788,https://www.gantrisch.ch/,,11.3,7.3,3.1,0.8,6,2,1050.8,1553.7,506.5,,,openskistats.org + api.openskimap.org + wikidata.org,2026-01-29
garessio-2000,Garessio 2000,Italien,Cuneo,11.8,0.5,0.5,0.5,0.5,0.5,0.5,0.5,44.209840228671354,7.934680459090905,,https://openskimap.org/?obj=08fdde82b6dd3a7f516304866e42b96762843e1b,https://skimap.org/skiareas/view/4448,https://skimap.org/skiareas/view/4448,,,11.8,4.7,5.7,1.1,13,4,1315.7,1929.5,618.6,,,openskistats.org + api.openskimap.org + wikidata.org,2026-01-29
gargellen,Gargellen,Österreich,Vorarlberg,26.7,0.5,0.5,0.5,0.5,0.5,0.5,0.5,46.962477165217386,9.905027013043481,,https://openskimap.org/?obj=a6bb19b0e149a1fd38a254a61b0bf78bbabec60f,https://skimap.org/skiareas/view/2704,https://skimap.org/skiareas/view/2704,https://www.montafon.at/bergbahnen-gargellen,,26.7,19.7,4.9,2.1,51,8,1427.3,2272.3,852.1,,,openskistats.org + api.openskimap.org + wikidata.org,2026-01-29
gatrisch-selital,Gatrisch - Selital,Schweiz,Bern,4.1,0.5,0.5,0.5,0.5,0.5,0.5,0.5,46.744261770526336,7.392336143157895,,https://openskimap.org/?obj=d134dedf981a206dc73049f1efbaa71d98b35cf7,,,,,4.1,1.9,1.7,0.5,7,2,1292.3,1593.3,301,,,openskistats.org + api.openskimap.org + wikidata.org,2026-01-29
gace,Gače,Slowenien,Southeast Slovenia,6,0.5,0.5,0.5,0.5,0.5,0.5,0.5,45.66470491711288,15.089749956131072,,https://openskimap.org/?obj=f9ef14480e6d26aba3361d2251eaa9eef5bec0d4,https://skimap.org/skiareas/view/12881,https://skimap.org/skiareas/view/12881,http://gace.si/,,6,1.9,4.1,,10,5,678.3,961.3,529.5,,,openskistats.org + api.openskimap.org + wikidata.org,2026-01-29
gemeindealpe-mitterbach,Gemeindealpe Mitterbach,Österreich,Lower Austria,10.2,0.5,0.5,0.5,0.5,0.5,0.5,0.5,47.80972829760004,15.2599828656,,https://openskimap.org/?obj=04ea58a5ffb47f5ef73c6233fdb0e1edd546a99e,https://skimap.org/skiareas/view/592,https://skimap.org/skiareas/view/592,https://www.gemeindealpe.at,,10.2,6.1,2.9,1.2,12,4,803.5,1622.4,819.1,,,openskistats.org + api.openskimap.org + wikidata.org,2026-01-29
gerlosstein-hainzenberg,Gerlosstein / Hainzenberg,Österreich,Tyrol,7.8,0.5,0.5,0.5,0.5,0.5,0.5,0.5,47.2048992857143,11.907234571428571,,https://openskimap.org/?obj=9581b3bfe8534575036b4e3e6b02dfc88a12f144,https://skimap.org/skiareas/view/17177,https://skimap.org/skiareas/view/17177,,,7.8,1.8,5.4,0.6,11,6,920.4,1830.4,910,,,openskistats.org + api.openskimap.org + wikidata.org,2026-01-29
gitschberg-jochtal-rio-pusteria,"Gitschberg Jochtal, Rio Pusteria",Italien,Bolzano/Bozen,32.1,0.5,0.5,0.5,0.5,0.5,0.5,0.5,46.83903159012345,11.649778958024696,,https://openskimap.org/?obj=db230da8ae03e645cb56642e15e00767f43f5252,https://skimap.org/skiareas/view/4261,https://skimap.org/skiareas/view/4261,https://www.gitschberg-jochtal.com,,32.1,14.8,13.8,3,45,14,1305.1,2496.7,1191.6,,,openskistats.org + api.openskimap.org + wikidata.org,2026-01-29
gitschenen-isenthal,Gitschenen – Isenthal,Schweiz,Uri,3.3,0.5,0.5,0.5,0.5,0.5,0.5,0.5,46.89943655454547,8.501324827272727,,https://openskimap.org/?obj=b88592487ef17f46766420bf255613e682a8db78,,,,,3.3,1.8,1.6,,6,2,1364.1,1580.6,216.5,,,openskistats.org + api.openskimap.org + wikidata.org,2026-01-29
glacier-3000,Glacier 3000,Schweiz,Valais,22,0.5,0.5,0.5,0.5,0.5,0.5,0.5,46.33774951702127,7.225156285106383,,https://openskimap.org/?obj=41629c07606b21cd89ede704bb1fe2a939ae9aea,,,https://www.glacier3000.ch/,,22,8.4,5,8.6,29,17,1544.7,2931.1,1386.4,,,openskistats.org + api.openskimap.org + wikidata.org,2026-01-29
gletscher-skigebiet-zugspitze-ski-resort-zugspitze,"Gletscher-Skigebiet Zugspitze, Ski resort Zugspitze",Deutschland,Bavaria,18.1,0.5,0.5,0.5,0.5,0.5,0.5,0.5,47.41269917059373,10.985161792207796,,https://openskimap.org/?obj=9e8a091097aeb5af7c87b5f53922e3db043a9849,https://skimap.org/skiareas/view/16621,https://skimap.org/skiareas/view/16621,https://zugspitze.de/de/winter/skigebiet/zugspitze,,18.1,6.3,11.8,,29,37,994.8,2676.4,1681.6,,,openskistats.org + api.openskimap.org + wikidata.org,2026-01-29
glungezer,Glungezer,Österreich,Tyrol,13.4,0.5,0.5,0.5,0.5,0.5,0.5,0.5,47.2335370400844,11.535944406751044,,https://openskimap.org/?obj=66e1d0ae483a9bd09595416815d2a6cecfede47f,https://skimap.org/skiareas/view/2545,https://skimap.org/skiareas/view/2545,https://www.glungezerbahn.at/,,13.4,4.2,8.9,0.2,16,6,940.2,2297.6,1357.4,,,openskistats.org + api.openskimap.org + wikidata.org,2026-01-29
gohrersberg-kreuzthal,Gohrersberg – Kreuzthal,Deutschland,Bavaria,2.7,0.5,0.5,0.5,0.5,0.5,0.5,0.5,47.721080287500016,10.119875637499998,,https://openskimap.org/?obj=c582c68a4600f08541a04c33e3f4994fffce22d0,https://skimap.org/skiareas/view/14488,https://skimap.org/skiareas/view/14488,https://www.gohrersberg.de/,,2.7,1.3,1.1,0.4,5,1,809,945.6,137.6,,,openskistats.org + api.openskimap.org + wikidata.org,2026-01-29
goldeck,Goldeck,Österreich,Carinthia,23.6,0.5,0.5,0.5,0.5,0.5,0.5,0.5,46.77495124000001,13.461818100000002,,https://openskimap.org/?obj=90cb61326a54a02d500c460d18ee69e512e28da8,https://skimap.org/skiareas/view/13488,https://skimap.org/skiareas/view/13488,https://sportberg-goldeck.com/,,23.6,13.7,3.4,6.5,33,8,545.3,2116.5,1579.8,,,openskistats.org + api.openskimap.org + wikidata.org,2026-01-29
goldegger-buchberg,Goldegger Buchberg,Österreich,Salzburg,4.5,0.5,0.5,0.5,0.5,0.5,0.5,0.5,47.311881890909085,13.074622490909093,,https://openskimap.org/?obj=735262b1fc08f513b21186ab928ae7a3ef6c87bd,https://skimap.org/skiareas/view/12370,https://skimap.org/skiareas/view/12370,https://www.goldeggamsee.at/familie-erlebnis/skifahren/,,4.5,4.5,,,7,3,828.1,1217.1,389,,,openskistats.org + api.openskimap.org + wikidata.org,2026-01-29
golm,Golm,Österreich,Vorarlberg,28.4,0.5,0.5,0.5,0.5,0.5,0.5,0.5,47.07420930000001,9.85923703235294,,https://openskimap.org/?obj=a0b175dd07ce580297a8e13d2b320aad44606d68,https://skimap.org/skiareas/view/2705,https://skimap.org/skiareas/view/2705,https://www.golm.at,,28.4,16.6,9.5,1.8,48,9,650.3,2103.1,1454,,,openskistats.org + api.openskimap.org + wikidata.org,2026-01-29
golte,Golte,Slowenien,Savinja,9.8,0.5,0.5,0.5,0.5,0.5,0.5,0.5,46.37416625000001,14.890608144999998,,https://openskimap.org/?obj=02784b0bdc01675624d150843d694349b3770671,https://skimap.org/skiareas/view/1964,https://skimap.org/skiareas/view/1964,https://www.golte.si/,,9.8,5.6,3.7,0.5,22,6,1281.4,1567.2,289.5,,,openskistats.org + api.openskimap.org + wikidata.org,2026-01-29
gonten,Gonten,Schweiz,Appenzell Innerrhoden,3,0.5,0.5,0.5,0.5,0.5,0.5,0.5,47.31670808035712,9.344727905952377,,https://openskimap.org/?obj=50fde6201d44abc28b7fb507385622ce82d763f3,,,https://www.skilifte-alpsteinblick.ch/,,3,3,,,6,2,891.9,1098.2,208,,,openskistats.org + api.openskimap.org + wikidata.org,2026-01-29
grand-ballon,Grand Ballon,Frankreich,Haut-Rhin,6.2,0.5,0.5,0.5,0.5,0.5,0.5,0.5,47.89653380285717,7.111564911428574,,https://openskimap.org/?obj=0818d73e7cba308b78e7a65cb46e01e96837334d,https://skimap.org/skiareas/view/897,https://skimap.org/skiareas/view/897,,,6.2,3.2,2.1,0.9,13,5,1064.6,1306.8,243.5,,,openskistats.org + api.openskimap.org + wikidata.org,2026-01-29
grasgehren,Grasgehren,Deutschland,Bavaria,9.2,0.5,0.5,0.5,0.5,0.5,0.5,0.5,47.44248918006945,10.176447296142559,,https://openskimap.org/?obj=723da9f03e9ff555184f067d2fffb141c5358150,https://skimap.org/skiareas/view/4574,https://skimap.org/skiareas/view/4574,https://grasgehren.de/,,9.2,3,5.4,,24,4,1435.5,1674.4,250,,,openskistats.org + api.openskimap.org + wikidata.org,2026-01-29
graukogel,Graukogel,Österreich,Salzburg,10.2,0.5,0.5,0.5,0.5,0.5,0.5,0.5,47.1109529910498,13.155806081125693,,https://openskimap.org/?obj=44685c49517f5a52c35d765c5defd207be75edbf,https://skimap.org/skiareas/view/597,https://skimap.org/skiareas/view/597,https://www.skigastein.com/,,10.2,2.8,5.5,1.9,11,3,1075.5,2006.2,930.7,,,openskistats.org + api.openskimap.org + wikidata.org,2026-01-29
gresse-en-vercors,Gresse en Vercors,Frankreich,Isère,13,0.5,0.5,0.5,0.5,0.5,0.5,0.5,44.888631259459466,5.543795308108108,,https://openskimap.org/?obj=4e191d9772e06e056666aa69ec7b0aebe400b24b,https://skimap.org/skiareas/view/723,https://skimap.org/skiareas/view/723,https://www.gresse-en-vercors.fr,,13,6.1,5.2,1.7,19,10,1247.3,1696.4,449.5,,,openskistats.org + api.openskimap.org + wikidata.org,2026-01-29
gressoney-saint-jean,Gressoney-Saint-Jean,Italien,Valle D'Aosta,8.3,0.5,0.5,0.5,0.5,0.5,0.5,0.5,45.753540500000014,7.829780811764704,,https://openskimap.org/?obj=dfd7e42a7934c1bcc50b3653b4935a1094d2439a,https://skimap.org/skiareas/view/4197,https://skimap.org/skiareas/view/4197,https://www.visitmonterosa.com/,,8.3,5,2.7,0.7,25,5,1366.1,2039.7,674.6,,,openskistats.org + api.openskimap.org + wikidata.org,2026-01-29
grimmialp,Grimmialp,Schweiz,Bern,8.6,0.5,0.5,0.5,0.5,0.5,0.5,0.5,46.557729230516436,7.484313234272305,,https://openskimap.org/?obj=e9db6a1814c7a0ef68420aad334a2a5f6f2de862,,,,,8.6,4.6,1.2,2.8,12,4,1229.2,1827.5,601.1,,,openskistats.org + api.openskimap.org + wikidata.org,2026-01-29
grindelwald-mannlichen-schlittelpiste,Grindelwald - Männlichen (Schlittelpiste),Schweiz,Bern,4.9,0.5,0.5,0.5,0.5,0.5,0.5,0.5,46.617129944379975,7.966452913145538,,https://openskimap.org/?obj=17b19c745f7d69545421bdb985f0b981abfc70ae,,,,,4.9,2,2.9,,26,4,1618,2223.2,1134.2,,,openskistats.org + api.openskimap.org + wikidata.org,2026-01-29
grindelwald-wengen-kleine-scheidegg-mannlichen,Grindelwald - Wengen (Kleine Scheidegg - Männlichen),Schweiz,Bern,90.8,0.5,0.5,0.5,0.5,0.5,0.5,0.5,46.59780069532502,7.965674859806495,,https://openskimap.org/?obj=1d111e0379650f6a9186eaa3d21dadf973340c88,https://skimap.org/skiareas/view/1001,https://skimap.org/skiareas/view/1001,https://www.jungfrau.ch/de-ch/jungfrau-ski-region/grindelwald-wengen/,,90.8,35.9,40,14.8,116,20,937.9,2394.2,1456.3,,,openskistats.org + api.openskimap.org + wikidata.org,2026-01-29
grindelwald-first,Grindelwald First,Schweiz,Bern,39.7,0.5,0.5,0.5,0.5,0.5,0.5,0.5,46.656433859769145,8.062863351277835,,https://openskimap.org/?obj=1871bd97633b45248e93e03d11f44d94caae83fc,https://skimap.org/skiareas/view/17207,https://skimap.org/skiareas/view/17207,https://www.jungfrau.ch/de-ch/grindelwaldfirst/,,39.7,17.5,13.7,8,49,11,1035,2497.2,1462.2,,,openskistats.org + api.openskimap.org + wikidata.org,2026-01-29
gro-arltal-dorfgastein,Großarltal-Dorfgastein,Österreich,Salzburg,52,0.5,0.5,0.5,0.5,0.5,0.5,0.5,47.24245513725489,13.161573703921567,,https://openskimap.org/?obj=3464497d99adceecb3afb0d408e29080d629a114,,,https://www.grossarltal.info/,,52,22.9,27.8,0.9,105,20,847.3,2027,1179.7,,,openskistats.org + api.openskimap.org + wikidata.org,2026-01-29
gro-eck-speiereck,Großeck-Speiereck,Österreich,Salzburg,28,0.5,0.5,0.5,0.5,0.5,0.5,0.5,47.12263645909093,13.652344979545456,,https://openskimap.org/?obj=6cabfdba2cce9ad12136c554e82e32540f996477,https://skimap.org/skiareas/view/604,https://skimap.org/skiareas/view/604,https://www.grosseck-speiereck.at/,,28,19.3,7.8,0.9,55,11,1080,2337.6,1257.6,,,openskistats.org + api.openskimap.org + wikidata.org,2026-01-29
grub-kaien,Grub-Kaien,Schweiz,Appenzell Ausserrhoden,2.8,0.5,0.5,0.5,0.5,0.5,0.5,0.5,47.440771666081865,9.503933077777777,,https://openskimap.org/?obj=e4490b6f29ce8d11e0a0756f2af79f4452122e33,https://skimap.org/skiareas/view/17914,https://skimap.org/skiareas/view/17914,https://skiliftgrub-kaien.ch,,2.8,1.6,,1.1,4,1,849.4,1068.1,219.2,,,openskistats.org + api.openskimap.org + wikidata.org,2026-01-29
grachen,Grächen,Schweiz,Valais,17.2,0.5,0.5,0.5,0.5,0.5,0.5,0.5,46.19668048909096,7.862638447878786,,https://openskimap.org/?obj=9ea685d2404d5268c6cb02acbda87feb44cb0db4,https://skimap.org/skiareas/view/3723,https://skimap.org/skiareas/view/3723,,,17.2,4.6,11.4,1,32,15,1619.5,2862.8,1244.9,,,openskistats.org + api.openskimap.org + wikidata.org,2026-01-29
greolieres-les-neiges,Gréolières-Les-Neiges,Frankreich,Alpes-Maritimes,23,0.5,0.5,0.5,0.5,0.5,0.5,0.5,43.82241267714285,6.962053434285716,,https://openskimap.org/?obj=678e5f815433e030d76aabe4cbb8852b0079a238,https://skimap.org/skiareas/view/697,https://skimap.org/skiareas/view/697,https://www.stations-greolieres-audibergue.com,,23,11.6,9.9,1.5,39,9,1397.6,1766.2,368.6,,,openskistats.org + api.openskimap.org + wikidata.org,2026-01-29
grollerkopf-ubersaxen,Gröllerkopf-Übersaxen,Österreich,Vorarlberg,3.3,0.5,0.5,0.5,0.5,0.5,0.5,0.5,47.25618991428572,9.68586442857143,,https://openskimap.org/?obj=55f22726ff3477d1555b5a2c42808d197792128b,,,https://www.uebersaxen.at/freizeit/freizeit/freizeitanlagen/schilift-groellerkopf,,3.3,3.3,,,12,2,1014.2,1193.5,181.2,,,openskistats.org + api.openskimap.org + wikidata.org,2026-01-29
grunten-rettenberg,Grünten (Rettenberg),Deutschland,Bavaria,11.6,0.5,0.5,0.5,0.5,0.5,0.5,0.5,47.58225401360228,10.321147108078,,https://openskimap.org/?obj=32d0b3408782076e1b5e1c51b81de166c760f00e,https://skimap.org/skiareas/view/983,https://skimap.org/skiareas/view/983,http://www.gruentenlifte.de/,,11.6,3.2,8.4,,14,1,878.3,909,758.7,,,openskistats.org + api.openskimap.org + wikidata.org,2026-01-29
grusch-danusa,Grüsch-Danusa,Schweiz,Graubunden,21.5,0.5,0.5,0.5,0.5,0.5,0.5,0.5,46.958511416415114,9.632905990754711,,https://openskimap.org/?obj=451134c6cbbe578b3234e79827871ecd81ddf3c3,https://skimap.org/skiareas/view/3712,https://skimap.org/skiareas/view/3712,https://www.gruesch-danusa.ch/,,21.5,2,16.1,3.3,22,8,596.8,1775.7,1178.9,,,openskistats.org + api.openskimap.org + wikidata.org,2026-01-29
gsieser-tal-valle-di-casies,"Gsieser Tal, Valle di Casies",Italien,Bolzano/Bozen,3.1,0.5,0.5,0.5,0.5,0.5,0.5,0.5,46.79484947173913,12.175284523913042,,https://openskimap.org/?obj=32bc3334d7e44300a12364628a8b22c9e13b042c,,,,,3.1,2.6,,0.4,4,3,1226.3,1731.3,505,,,openskistats.org + api.openskimap.org + wikidata.org,2026-01-29
gspon,Gspon,Schweiz,Valais,2.4,0.5,0.5,0.5,0.5,0.5,0.5,0.5,46.226157643812975,7.907945289047761,,https://openskimap.org/?obj=b609f3d86efe3e3420439e1e1298a4fd0faaf8d7,https://skimap.org/skiareas/view/4600,https://skimap.org/skiareas/view/4600,,,2.4,0.6,1.7,,4,4,1865.5,2191.5,326,,,openskistats.org + api.openskimap.org + wikidata.org,2026-01-29
gstaad-saanen-rougemont,Gstaad - Saanen - Rougemont,Schweiz,Bern,38,0.5,0.5,0.5,0.5,0.5,0.5,0.5,46.4678248,7.236622133333334,,https://openskimap.org/?obj=4c623c993b79a2c02ca2ec60de4bb18383242239,https://skimap.org/skiareas/view/1000,https://skimap.org/skiareas/view/1000,https://www.gstaad.ch/bergbahnen/,,38,23.7,9.1,5.1,33,11,967.8,2152.1,1184.6,,,openskistats.org + api.openskimap.org + wikidata.org,2026-01-29
gurtis,Gurtis,Österreich,Vorarlberg,11.4,0.5,0.5,0.5,0.5,0.5,0.5,0.5,47.19736768144116,9.6252877455572,,https://openskimap.org/?obj=b4acfbd08acc8fb366ffb233e30ff36ac24e489e,,,,,11.4,1.4,4.5,5.4,18,3,917.7,1388.9,754.5,,,openskistats.org + api.openskimap.org + wikidata.org,2026-01-29
gerardmer,Gérardmer,Frankreich,Vosges,23.1,0.5,0.5,0.5,0.5,0.5,0.5,0.5,48.053493897826066,6.903546338695647,,https://openskimap.org/?obj=7ccf68e28c0dfb0a0d21e0ad24260a5775c63263,https://skimap.org/skiareas/view/889,https://skimap.org/skiareas/view/889,https://www.gerardmer-ski.com/,,23.1,13.3,7.5,1.5,62,20,776.4,1137.8,361.4,,,openskistats.org + api.openskimap.org + wikidata.org,2026-01-29
gotschenkopf,Götschenkopf,Deutschland,Bavaria,7.5,0.5,0.5,0.5,0.5,0.5,0.5,0.5,47.64241916643597,12.94003356712803,,https://openskimap.org/?obj=24db8df994d93f7726a7cdc5a3361604c1b7bc68,https://skimap.org/skiareas/view/16610,https://skimap.org/skiareas/view/16610,,,7.5,3.5,1.9,2.1,12,3,878.1,1277.3,651,,,openskistats.org + api.openskimap.org + wikidata.org,2026-01-29
habkern,Habkern,Schweiz,Bern,7.8,0.5,0.5,0.5,0.5,0.5,0.5,0.5,46.73151671265306,7.853696191428571,,https://openskimap.org/?obj=a9c334332416f4de546acbe9bd29444aea3abfbd,https://skimap.org/skiareas/view/5454,https://skimap.org/skiareas/view/5454,https://www.skilifthabkern.ch/,,7.8,2.4,3.3,2.1,6,1,1133.4,1472.1,339.1,,,openskistats.org + api.openskimap.org + wikidata.org,2026-01-29
hagenberg,Hagenberg,Österreich,Vorarlberg,4,0.5,0.5,0.5,0.5,0.5,0.5,0.5,47.532254688888884,9.890398971111113,,https://openskimap.org/?obj=0d9ba95c9f923a638abdb09784e0775c0194b406,,,https://www.skilifte-hagenberg.at,,4,3,1,,7,2,612.5,917.6,305.4,,,openskistats.org + api.openskimap.org + wikidata.org,2026-01-29
hahnenkamm,Hahnenkamm,Österreich,Tyrol,8.5,0.5,0.5,0.5,0.5,0.5,0.5,0.5,47.4750649443299,10.653706032989694,,https://openskimap.org/?obj=7bf9fd707a69cba7cf6dd9355bd4fa9d731d8376,https://skimap.org/skiareas/view/12356,https://skimap.org/skiareas/view/12356,https://bergwelt-hahnenkamm.at/,,8.5,1.2,7,0.4,9,4,915,1879.2,964.5,,,openskistats.org + api.openskimap.org + wikidata.org,2026-01-29
haldenkopfle,Haldenköpfle,Deutschland,Baden-Württemberg,4,0.5,0.5,0.5,0.5,0.5,0.5,0.5,47.8821626355062,7.8937971591782805,,https://openskimap.org/?obj=1f613ad2645c8582f1ed573c05ffde8c53ae8b71,https://skimap.org/skiareas/view/976,https://skimap.org/skiareas/view/976,https://www.liftverbund-feldberg.de/,,4,2.5,1.5,,14,6,1097.4,1265.2,166,,,openskistats.org + api.openskimap.org + wikidata.org,2026-01-29
haunold,Haunold,Italien,Bolzano/Bozen,7.3,0.5,0.5,0.5,0.5,0.5,0.5,0.5,46.72347371986332,12.278104749554467,,https://openskimap.org/?obj=4b611d0fee9926b892ef84749f8f6459d45225c7,https://skimap.org/skiareas/view/17614,https://skimap.org/skiareas/view/17614,,,7.3,5.3,1.7,0.4,18,5,1176.7,1605.6,428.9,,,openskistats.org + api.openskimap.org + wikidata.org,2026-01-29
hauser-kaibling,Hauser Kaibling,Österreich,Styria,31.3,0.5,0.5,0.5,0.5,0.5,0.5,0.5,47.38382503333333,13.773152792592596,,https://openskimap.org/?obj=5ab9e6937c6d307e489c101407d930432f918cab,,,https://www.hauser-kaibling.at,,31.3,18.3,9.4,3.6,42,12,723.8,2004.5,1280.7,,,openskistats.org + api.openskimap.org + wikidata.org,2026-01-29
